{
  "Annapolis, MD|USA": {
    "query": "Annapolis, MD",
    "country": "USA",
    "results": [
      {
        "lat": 38.9786401,
        "lng": -76.492786,
        "displayName": "Annapolis, Anne Arundel County, Maryland, United States",
        "type": "administrative",
        "importance": 0.6280413651886226
      }
    ],
    "candidateCount": 1,
    "timestamp": "2026-02-15T20:24:07.251Z"
  },
  "Wye River, MD|USA": {
    "query": "Wye River, MD",
    "country": "USA",
    "results": [
      {
        "lat": 38.9295627,
        "lng": -76.1660501,
        "displayName": "Wye River, Queenstown, Queen Anne's County, Maryland, United States",
        "type": "river",
        "importance": 0.14670166857404435
      },
      {
        "lat": 38.9856206,
        "lng": -76.1430517,
        "displayName": "Wye River, Queenstown, Queen Anne's County, Maryland, 21658, United States",
        "type": "river",
        "importance": 0.14670166857404435
      },
      {
        "lat": 38.9821177,
        "lng": -76.1491965,
        "displayName": "Wye River, Queen Anne's County, Maryland, 21658, United States",
        "type": "river",
        "importance": 0.14670166857404435
      }
    ],
    "candidateCount": 3,
    "timestamp": "2026-02-15T20:24:08.732Z"
  },
  "Bruffs Island, MD|USA": {
    "query": "Bruffs Island, MD",
    "country": "USA",
    "results": [
      {
        "lat": 38.8559486,
        "lng": -76.1910589,
        "displayName": "Bruffs Island, Talbot County, Maryland, United States",
        "type": "island",
        "importance": 0.17338646753643092
      }
    ],
    "candidateCount": 1,
    "timestamp": "2026-02-15T20:24:10.153Z"
  },
  "St Michaels, MD|USA": {
    "query": "St Michaels, MD",
    "country": "USA",
    "results": [
      {
        "lat": 38.7865839,
        "lng": -76.2244098,
        "displayName": "Saint Michaels, Talbot County, Maryland, 21663, United States",
        "type": "administrative",
        "importance": 0.37838153675224867
      }
    ],
    "candidateCount": 1,
    "timestamp": "2026-02-15T20:24:11.665Z"
  },
  "Deltaville, VA|USA": {
    "query": "Deltaville, VA",
    "country": "USA",
    "results": [
      {
        "lat": 37.5467115,
        "lng": -76.3323792,
        "displayName": "Deltaville, Middlesex County, Virginia, 23043, United States",
        "type": "census",
        "importance": 0.29503227113851116
      },
      {
        "lat": 37.5548568,
        "lng": -76.3368883,
        "displayName": "Deltaville, Middlesex County, Virginia, 23043, United States",
        "type": "village",
        "importance": 0.29503227113851116
      }
    ],
    "candidateCount": 2,
    "timestamp": "2026-02-15T20:24:13.072Z"
  },
  "Norfolk, VA|USA": {
    "query": "Norfolk, VA",
    "country": "USA",
    "results": [
      {
        "lat": 36.8493695,
        "lng": -76.2899539,
        "displayName": "Norfolk, Virginia, United States",
        "type": "administrative",
        "importance": 0.6525396172289414
      }
    ],
    "candidateCount": 1,
    "timestamp": "2026-02-15T20:24:14.588Z"
  },
  "Beaufort, NC|USA": {
    "query": "Beaufort, NC",
    "country": "USA",
    "results": [
      {
        "lat": 35.469331,
        "lng": -76.8927522,
        "displayName": "Beaufort County, North Carolina, United States",
        "type": "administrative",
        "importance": 0.5533158703799318
      },
      {
        "lat": 34.7163146,
        "lng": -76.6645903,
        "displayName": "Beaufort, Carteret County, North Carolina, United States",
        "type": "administrative",
        "importance": 0.487297624928011
      }
    ],
    "candidateCount": 2,
    "timestamp": "2026-02-15T20:24:16.092Z"
  },
  "Masonboro Inlet, NC|USA": {
    "query": "Masonboro Inlet, NC",
    "country": "USA",
    "results": [
      {
        "lat": 34.1848928,
        "lng": -77.8122048,
        "displayName": "Masonboro Inlet, New Hanover County, North Carolina, 28480, United States",
        "type": "bay",
        "importance": 0.10669536659800104
      }
    ],
    "candidateCount": 1,
    "timestamp": "2026-02-15T20:24:17.494Z"
  },
  "Georgetown, SC|USA": {
    "query": "Georgetown, SC",
    "country": "USA",
    "results": [
      {
        "lat": 33.4392245,
        "lng": -79.3343041,
        "displayName": "Georgetown County, South Carolina, United States",
        "type": "administrative",
        "importance": 0.4989299353871594
      },
      {
        "lat": 33.376834,
        "lng": -79.2944965,
        "displayName": "Georgetown, Georgetown County, South Carolina, United States",
        "type": "administrative",
        "importance": 0.4747498414041749
      }
    ],
    "candidateCount": 2,
    "timestamp": "2026-02-15T20:24:18.949Z"
  },
  "Charleston, SC|USA": {
    "query": "Charleston, SC",
    "country": "USA",
    "results": [
      {
        "lat": 32.7884363,
        "lng": -79.9399309,
        "displayName": "Charleston, Charleston County, South Carolina, United States",
        "type": "administrative",
        "importance": 0.6598943815490479
      },
      {
        "lat": 32.8152646,
        "lng": -79.7996814,
        "displayName": "Charleston County, South Carolina, United States",
        "type": "administrative",
        "importance": 0.5110859566408412
      }
    ],
    "candidateCount": 2,
    "timestamp": "2026-02-15T20:24:20.444Z"
  },
  "Bohicket Sound, SC|USA": {
    "query": "Bohicket Sound, SC",
    "country": "USA",
    "results": [],
    "candidateCount": 0,
    "timestamp": "2026-02-15T20:24:24.659Z"
  },
  "Skull Creek, Port Royal Sound|USA": {
    "query": "Skull Creek, Port Royal Sound",
    "country": "USA",
    "results": [],
    "candidateCount": 0,
    "timestamp": "2026-02-15T20:24:28.816Z"
  },
  "Hilton Head, SC|USA": {
    "query": "Hilton Head, SC",
    "country": "USA",
    "results": [
      {
        "lat": 32.1618488,
        "lng": -80.7512616,
        "displayName": "Hilton Head Island, Beaufort County, South Carolina, United States",
        "type": "administrative",
        "importance": 0.5074147865832991
      },
      {
        "lat": 32.193817,
        "lng": -80.7381637,
        "displayName": "Hilton Head Island, Beaufort County, South Carolina, 29926, United States",
        "type": "island",
        "importance": 0.17339009613183795
      },
      {
        "lat": 32.2434259,
        "lng": -80.7255408,
        "displayName": "Hilton Head Plantation, Hilton Head Island, Beaufort County, South Carolina, 29926, United States",
        "type": "village",
        "importance": 0.14672342946517125
      },
      {
        "lat": 32.2218681,
        "lng": -80.7711677,
        "displayName": "Hilton Head Harbor RV Resort and Marina, Beaufort County, South Carolina, 29925, United States",
        "type": "neighbourhood",
        "importance": 0.13339009613183794
      }
    ],
    "candidateCount": 4,
    "timestamp": "2026-02-15T20:24:30.790Z"
  },
  "Cape Canaveral|USA": {
    "query": "Cape Canaveral",
    "country": "USA",
    "results": [
      {
        "lat": 28.4513556,
        "lng": -80.5283059,
        "displayName": "Cape Canaveral, Brevard County, Florida, United States",
        "type": "locality",
        "importance": 0.556264792885987
      },
      {
        "lat": 28.3881442,
        "lng": -80.6056464,
        "displayName": "Cape Canaveral, Brevard County, Florida, United States",
        "type": "administrative",
        "importance": 0.4669639970377807
      }
    ],
    "candidateCount": 2,
    "timestamp": "2026-02-15T20:24:32.206Z"
  },
  "Fort Pierce|USA": {
    "query": "Fort Pierce",
    "country": "USA",
    "results": [
      {
        "lat": 27.4467056,
        "lng": -80.3256056,
        "displayName": "Fort Pierce, Saint Lucie County, Florida, United States",
        "type": "administrative",
        "importance": 0.49702965686561673
      }
    ],
    "candidateCount": 1,
    "timestamp": "2026-02-15T20:24:33.660Z"
  },
  "Lake Worth|USA": {
    "query": "Lake Worth",
    "country": "USA",
    "results": [
      {
        "lat": 32.8048507,
        "lng": -97.44502,
        "displayName": "Lake Worth, Tarrant County, Texas, United States",
        "type": "administrative",
        "importance": 0.47627325524502523
      },
      {
        "lat": 32.8146808,
        "lng": -97.4810911,
        "displayName": "Lake Worth, Fort Worth, Tarrant County, Texas, United States",
        "type": "reservoir",
        "importance": 0.23287532647815115
      },
      {
        "lat": 35.6968386,
        "lng": -75.7737887,
        "displayName": "Lake Worth, Dare County, North Carolina, 27978, United States",
        "type": "hamlet",
        "importance": 0.13336833524071104
      }
    ],
    "candidateCount": 3,
    "timestamp": "2026-02-15T20:24:35.146Z"
  },
  "Ft Lauderdale|USA": {
    "query": "Ft Lauderdale",
    "country": "USA",
    "results": [
      {
        "lat": 26.1223084,
        "lng": -80.1433786,
        "displayName": "Fort Lauderdale, Broward County, Florida, United States",
        "type": "administrative",
        "importance": 0.6445219850234548
      }
    ],
    "candidateCount": 1,
    "timestamp": "2026-02-15T20:24:36.647Z"
  },
  "North Bimini|USA": {
    "query": "North Bimini",
    "country": "USA",
    "results": [
      {
        "lat": 26.7646862,
        "lng": -80.1132741,
        "displayName": "Bimini Circle North, Gramercy Park, Palm Beach County, Florida, 33407, United States",
        "type": "residential",
        "importance": 0.05339888532845041
      },
      {
        "lat": 30.1389474,
        "lng": -95.564055,
        "displayName": "North Bimini Twist Circle, Creekside Park, The Woodlands, Harris County, Texas, United States",
        "type": "residential",
        "importance": 0.05339471808957042
      },
      {
        "lat": 27.2031586,
        "lng": -80.31327,
        "displayName": "Southwest Bimini Circle North, Evergreen Club, Palm City, Martin County, Florida, 34990, United States",
        "type": "residential",
        "importance": 0.053394415960936865
      },
      {
        "lat": 27.7339547,
        "lng": -82.7422461,
        "displayName": "Bimini Way North, Bahia Shores, Saint Pete Beach, Pinellas County, Florida, 33706, United States",
        "type": "residential",
        "importance": 0.053383891813534715
      },
      {
        "lat": 28.3406164,
        "lng": -80.6102143,
        "displayName": "North Atlantic Avenue/Bimini Road (North West Corner), Bimini Road, Cocoa Beach, Brevard County, Florida, 32931, United States",
        "type": "bus_stop",
        "importance": 0.000054243533989425766
      }
    ],
    "candidateCount": 5,
    "timestamp": "2026-02-15T20:24:38.144Z"
  },
  "North Bimini|Bahamas": {
    "query": "North Bimini",
    "country": "Bahamas",
    "results": [
      {
        "lat": 25.7488006,
        "lng": -79.257438,
        "displayName": "North Bimini, Bailey Town, Bimini, The Bahamas",
        "type": "island",
        "importance": 0.173385333791104
      }
    ],
    "candidateCount": 1,
    "timestamp": "2026-02-15T20:24:39.576Z"
  },
  "Chub Cay|Bahamas": {
    "query": "Chub Cay",
    "country": "Bahamas",
    "results": [
      {
        "lat": 25.4165151,
        "lng": -77.8782658,
        "displayName": "Chub Cay International Airport, Berry Islands, The Bahamas",
        "type": "aerodrome",
        "importance": 0.315871495847995
      },
      {
        "lat": 25.4229958,
        "lng": -77.8403213,
        "displayName": "Chub Cay & Fraziers Hog Cay, Berry Islands, The Bahamas",
        "type": "island",
        "importance": 0.1507975276546128
      }
    ],
    "candidateCount": 2,
    "timestamp": "2026-02-15T20:24:41.029Z"
  },
  "Atlantis, Nassau|Bahamas": {
    "query": "Atlantis, Nassau",
    "country": "Bahamas",
    "results": [
      {
        "lat": 25.0841476,
        "lng": -77.3209065,
        "displayName": "Dragon’s Ultra Lounge, Atlantis, Paradise Island Drive, Nassau, New Providence, The Bahamas",
        "type": "bar",
        "importance": 0.00006775387197676078
      },
      {
        "lat": 25.0850469,
        "lng": -77.3225869,
        "displayName": "Atlantis Paradise Island, 1, Casino Drive, Nassau, New Providence, The Bahamas",
        "type": "resort",
        "importance": 0.38720269879149205
      },
      {
        "lat": 25.0813634,
        "lng": -77.3226058,
        "displayName": "Harborside at Atlantis, Nassau, New Providence, The Bahamas",
        "type": "residential",
        "importance": 0.10673442053864345
      }
    ],
    "candidateCount": 3,
    "timestamp": "2026-02-15T20:24:42.525Z"
  },
  "Royal Island, Eleuthera|Bahamas": {
    "query": "Royal Island, Eleuthera",
    "country": "Bahamas",
    "results": [],
    "candidateCount": 0,
    "timestamp": "2026-02-15T20:24:46.833Z"
  },
  "Meek's Path, Eleuthera|Bahamas": {
    "query": "Meek's Path, Eleuthera",
    "country": "Bahamas",
    "results": [],
    "candidateCount": 0,
    "timestamp": "2026-02-15T20:24:51.181Z"
  },
  "Glass Window Bridge, Eleuthera|Bahamas": {
    "query": "Glass Window Bridge, Eleuthera",
    "country": "Bahamas",
    "results": [
      {
        "lat": 25.4375947,
        "lng": -76.6043625,
        "displayName": "Glass Window Bridge, North Eleuthera, The Bahamas",
        "type": "secondary",
        "importance": 0.053379472800793436
      }
    ],
    "candidateCount": 1,
    "timestamp": "2026-02-15T20:24:52.604Z"
  },
  "Albany|Bahamas": {
    "query": "Albany",
    "country": "Bahamas",
    "results": [
      {
        "lat": 25.0032313,
        "lng": -77.5072082,
        "displayName": "Albany Resort Marina, New Providence, The Bahamas",
        "type": "water",
        "importance": 0.10672140764476995
      },
      {
        "lat": 25.0608469,
        "lng": -77.3067288,
        "displayName": "Albany Street, Blair Estates, Nassau, New Providence, The Bahamas",
        "type": "residential",
        "importance": 0.0534010872053101
      },
      {
        "lat": 25.0091137,
        "lng": -77.5075495,
        "displayName": "Albany Resort & Marina, Liberated African Way, Adelaide Beach, New Providence, The Bahamas",
        "type": "hotel",
        "importance": 0.00005474097810325807
      },
      {
        "lat": 25.0114225,
        "lng": -77.5018442,
        "displayName": "Albany Golf Course, Adelaide Road, New Providence, The Bahamas",
        "type": "golf_course",
        "importance": 0.00005474097810325807
      },
      {
        "lat": 25.0144278,
        "lng": -77.4960407,
        "displayName": "Windsor School (Albany Campus), Frank Watson Boulevard, New Providence, The Bahamas",
        "type": "school",
        "importance": 0.00005474097810325807
      }
    ],
    "candidateCount": 5,
    "timestamp": "2026-02-15T20:24:54.064Z"
  },
  "Highbourne Cay|Bahamas": {
    "query": "Highbourne Cay",
    "country": "Bahamas",
    "results": [],
    "candidateCount": 0,
    "timestamp": "2026-02-15T20:24:58.024Z"
  },
  "Shroud Cay|Bahamas": {
    "query": "Shroud Cay",
    "country": "Bahamas",
    "results": [
      {
        "lat": 24.5446701,
        "lng": -76.7858617,
        "displayName": "Shroud Cay, Exuma, The Bahamas",
        "type": "island",
        "importance": 0.17338465476462958
      }
    ],
    "candidateCount": 1,
    "timestamp": "2026-02-15T20:24:59.439Z"
  },
  "Great Guana Cay|Bahamas": {
    "query": "Great Guana Cay",
    "country": "Bahamas",
    "results": [
      {
        "lat": 26.6784722,
        "lng": -77.1284836,
        "displayName": "Great Guana Cay, Hope Town, The Bahamas",
        "type": "island",
        "importance": 0.2292915155073439
      },
      {
        "lat": 24.0888191,
        "lng": -76.3911591,
        "displayName": "Great Guana Cay, Black Point, The Bahamas",
        "type": "island",
        "importance": 0.17337961165789273
      }
    ],
    "candidateCount": 2,
    "timestamp": "2026-02-15T20:25:00.691Z"
  },
  "Staniel Cay|Bahamas": {
    "query": "Staniel Cay",
    "country": "Bahamas",
    "results": [
      {
        "lat": 24.1706517,
        "lng": -76.4415881,
        "displayName": "Staniel Cay, Exuma, The Bahamas",
        "type": "island",
        "importance": 0.22146471083322677
      }
    ],
    "candidateCount": 1,
    "timestamp": "2026-02-15T20:25:02.089Z"
  },
  "West End, New Providence|Bahamas": {
    "query": "West End, New Providence",
    "country": "Bahamas",
    "results": [
      {
        "lat": 25.0556247,
        "lng": -77.3485865,
        "displayName": "West End Avenue, Coconut Grove, Nassau, New Providence, The Bahamas",
        "type": "residential",
        "importance": 0.0534010872053101
      }
    ],
    "candidateCount": 1,
    "timestamp": "2026-02-15T20:25:03.503Z"
  },
  "Atlantis|Bahamas": {
    "query": "Atlantis",
    "country": "Bahamas",
    "results": [
      {
        "lat": 25.0841476,
        "lng": -77.3209065,
        "displayName": "Dragon’s Ultra Lounge, Atlantis, Paradise Island Drive, Nassau, New Providence, The Bahamas",
        "type": "bar",
        "importance": 0.00006775387197676078
      },
      {
        "lat": 25.0850469,
        "lng": -77.3225869,
        "displayName": "Atlantis Paradise Island, 1, Casino Drive, Nassau, New Providence, The Bahamas",
        "type": "resort",
        "importance": 0.38720269879149205
      },
      {
        "lat": 25.0813634,
        "lng": -77.3226058,
        "displayName": "Harborside at Atlantis, Nassau, New Providence, The Bahamas",
        "type": "residential",
        "importance": 0.10673442053864345
      }
    ],
    "candidateCount": 3,
    "timestamp": "2026-02-15T20:25:04.806Z"
  },
  "Allans Cay|Bahamas": {
    "query": "Allans Cay",
    "country": "Bahamas",
    "results": [
      {
        "lat": 26.9825859,
        "lng": -77.6750162,
        "displayName": "Allans - Pensacola Cay, North Abaco, The Bahamas",
        "type": "island",
        "importance": 0.1733791126878767
      }
    ],
    "candidateCount": 1,
    "timestamp": "2026-02-15T20:25:06.220Z"
  },
  "Normans Cay|Bahamas": {
    "query": "Normans Cay",
    "country": "Bahamas",
    "results": [
      {
        "lat": 24.5980754,
        "lng": -76.8180329,
        "displayName": "Normans Cay Airport, Normans Cay, Exuma, The Bahamas",
        "type": "aerodrome",
        "importance": 0.3065685497365947
      },
      {
        "lat": 24.6187962,
        "lng": -76.8171672,
        "displayName": "Norman's Cay, Exuma, The Bahamas",
        "type": "island",
        "importance": 0.2976383631796269
      }
    ],
    "candidateCount": 2,
    "timestamp": "2026-02-15T20:25:07.645Z"
  },
  "Emerald Bay|Bahamas": {
    "query": "Emerald Bay",
    "country": "Bahamas",
    "results": [
      {
        "lat": 26.4975382,
        "lng": -78.708122,
        "displayName": "Emerald Bay, Bahamia, City of Freeport, The Bahamas",
        "type": "residential",
        "importance": 0.10672039139391162
      }
    ],
    "candidateCount": 1,
    "timestamp": "2026-02-15T20:25:09.143Z"
  },
  "Long Island|Bahamas": {
    "query": "Long Island",
    "country": "Bahamas",
    "results": [
      {
        "lat": 23.303,
        "lng": -75.1058782,
        "displayName": "Long Island, The Bahamas",
        "type": "administrative",
        "importance": 0.4291396199140783
      },
      {
        "lat": 23.2682497,
        "lng": -75.0963399,
        "displayName": "Long Island, The Bahamas",
        "type": "island",
        "importance": 0.4291396199140783
      },
      {
        "lat": 23.2225048,
        "lng": -75.1090705,
        "displayName": "Long Island, The Bahamas",
        "type": "region",
        "importance": 0.16004958800640878
      },
      {
        "lat": 23.236855,
        "lng": -75.1350664,
        "displayName": "Long Island, The Bahamas",
        "type": "islet",
        "importance": 0.1333829213397421
      }
    ],
    "candidateCount": 4,
    "timestamp": "2026-02-15T20:25:10.580Z"
  },
  "Rum Cay|Bahamas": {
    "query": "Rum Cay",
    "country": "Bahamas",
    "results": [
      {
        "lat": 23.8263065,
        "lng": -74.9326829,
        "displayName": "Rum Cay, The Bahamas",
        "type": "administrative",
        "importance": 0.4028239321463142
      },
      {
        "lat": 23.6738549,
        "lng": -74.8708236,
        "displayName": "Rum Cay, The Bahamas",
        "type": "island",
        "importance": 0.4028239321463142
      },
      {
        "lat": 25.4683804,
        "lng": -78.03282,
        "displayName": "Rum Cay, Berry Islands, The Bahamas",
        "type": "island",
        "importance": 0.17338266651407644
      },
      {
        "lat": 23.6796894,
        "lng": -74.8663188,
        "displayName": "Rum Cay, The Bahamas",
        "type": "region",
        "importance": 0.16004698939497977
      }
    ],
    "candidateCount": 4,
    "timestamp": "2026-02-15T20:25:12.003Z"
  },
  "Crooked Island|Bahamas": {
    "query": "Crooked Island",
    "country": "Bahamas",
    "results": [
      {
        "lat": 22.7486959,
        "lng": -74.2386163,
        "displayName": "Crooked Island, The Bahamas",
        "type": "island",
        "importance": 0.40878862413493994
      }
    ],
    "candidateCount": 1,
    "timestamp": "2026-02-15T20:25:13.611Z"
  },
  "Castle Island|Bahamas": {
    "query": "Castle Island",
    "country": "Bahamas",
    "results": [
      {
        "lat": 22.1302855,
        "lng": -74.315653,
        "displayName": "Castle Island, Acklins, The Bahamas",
        "type": "island",
        "importance": 0.12549564188972803
      }
    ],
    "candidateCount": 1,
    "timestamp": "2026-02-15T20:25:14.851Z"
  },
  "Great Inagua|Bahamas": {
    "query": "Great Inagua",
    "country": "Bahamas",
    "results": [
      {
        "lat": 21.12637,
        "lng": -73.3141828,
        "displayName": "Great Inagua, The Bahamas",
        "type": "island",
        "importance": 0.2584409411662214
      }
    ],
    "candidateCount": 1,
    "timestamp": "2026-02-15T20:25:16.243Z"
  },
  "Great Inagua|Dominican Republic": {
    "query": "Great Inagua",
    "country": "Dominican Republic",
    "results": [
      {
        "lat": 21.12637,
        "lng": -73.3141828,
        "displayName": "Great Inagua, The Bahamas",
        "type": "island",
        "importance": 0.2584409411662214
      }
    ],
    "candidateCount": 1,
    "timestamp": "2026-02-15T20:25:19.068Z"
  },
  "Puerto Plata, DR|Dominican Republic": {
    "query": "Puerto Plata, DR",
    "country": "Dominican Republic",
    "results": [
      {
        "lat": 19.7891616,
        "lng": -70.6926181,
        "displayName": "Puerto Plata, 32106, República Dominicana",
        "type": "administrative",
        "importance": 0.48828934678347574
      }
    ],
    "candidateCount": 1,
    "timestamp": "2026-02-15T20:25:20.465Z"
  },
  "Samana, DR|Dominican Republic": {
    "query": "Samana, DR",
    "country": "Dominican Republic",
    "results": [
      {
        "lat": 19.2053317,
        "lng": -69.3370746,
        "displayName": "Hospital Dr. Leopoldo Pou, Avenida Circunvalación, Samaná, República Dominicana",
        "type": "hospital",
        "importance": 0.00005229037918664862
      },
      {
        "lat": 19.3052143,
        "lng": -69.5485134,
        "displayName": "Centro Clinico Dr. Polanco, 45, Avenida Juan Pablo Duarte, El Almendro, Las Terrenas, Samaná, 32200, República Dominicana",
        "type": "doctors",
        "importance": 0.000049206530861326275
      },
      {
        "lat": 19.2036865,
        "lng": -69.3389611,
        "displayName": "Samaná, 82202, República Dominicana",
        "type": "administrative",
        "importance": 0.45284941963342645
      }
    ],
    "candidateCount": 3,
    "timestamp": "2026-02-15T20:25:21.967Z"
  },
  "Punta Cana, DR|Dominican Republic": {
    "query": "Punta Cana, DR",
    "country": "Dominican Republic",
    "results": [
      {
        "lat": 18.556551,
        "lng": -68.3691611,
        "displayName": "Punta Cana, Higüey, La Altagracia, 23300, República Dominicana",
        "type": "city",
        "importance": 0.49767872854879874
      }
    ],
    "candidateCount": 1,
    "timestamp": "2026-02-15T20:25:23.534Z"
  },
  "Puerto Real, PR|Dominican Republic": {
    "query": "Puerto Real, PR",
    "country": "Dominican Republic",
    "results": [
      {
        "lat": 19.8065517,
        "lng": -70.7118548,
        "displayName": "Antiguo Camino Real a Puerto Plata, Costámbar, Puerto Plata, República Dominicana",
        "type": "residential",
        "importance": 0.05338971007858393
      }
    ],
    "candidateCount": 1,
    "timestamp": "2026-02-15T20:25:24.838Z"
  },
  "Puerto Real, PR|Puerto Rico": {
    "query": "Puerto Real, PR",
    "country": "Puerto Rico",
    "results": [
      {
        "lat": 18.1077609,
        "lng": -65.4745336,
        "displayName": "Puerto Real, Vieques, Puerto Rico, United States",
        "type": "administrative",
        "importance": 0.16004000076295108
      },
      {
        "lat": 18.1096964,
        "lng": -65.4758054,
        "displayName": "Puerto Real, Vieques, Puerto Rico, 00765, United States",
        "type": "suburb",
        "importance": 0.14670666742961772
      },
      {
        "lat": 18.3341145,
        "lng": -65.6406895,
        "displayName": "Puerto Real, Barrio Pueblo, Fajardo, Puerto Rico, United States",
        "type": "neighbourhood",
        "importance": 0.133374457160296
      },
      {
        "lat": 18.0797027,
        "lng": -67.1876326,
        "displayName": "Puerto Real, Miradero, Cabo Rojo, Puerto Rico, 00623, United States",
        "type": "neighbourhood",
        "importance": 0.1333733340962844
      },
      {
        "lat": 18.3335464,
        "lng": -65.6308233,
        "displayName": "Puerto Real, Barrio Pueblo, Fajardo, Puerto Rico, 00740, United States",
        "type": "quarter",
        "importance": 0.13337083466849772
      }
    ],
    "candidateCount": 5,
    "timestamp": "2026-02-15T20:25:28.028Z"
  },
  "Ponce, PR|Puerto Rico": {
    "query": "Ponce, PR",
    "country": "Puerto Rico",
    "results": [
      {
        "lat": 18.0668224,
        "lng": -66.6140412,
        "displayName": "Ponce, Puerto Rico, United States",
        "type": "administrative",
        "importance": 0.5571158052651856
      },
      {
        "lat": 18.011564,
        "lng": -66.613958,
        "displayName": "Ponce, Puerto Rico, 00730, United States",
        "type": "city",
        "importance": 0.1867282955672541
      }
    ],
    "candidateCount": 2,
    "timestamp": "2026-02-15T20:25:31.056Z"
  },
  "Salinas, PR|Puerto Rico": {
    "query": "Salinas, PR",
    "country": "Puerto Rico",
    "results": [
      {
        "lat": 18.0133295,
        "lng": -66.2674419,
        "displayName": "Salinas, Puerto Rico, United States",
        "type": "administrative",
        "importance": 0.47491352677717547
      },
      {
        "lat": 17.9769779,
        "lng": -66.2980187,
        "displayName": "Salinas, Puerto Rico, 00751, United States",
        "type": "town",
        "importance": 0.16003813153276875
      }
    ],
    "candidateCount": 2,
    "timestamp": "2026-02-15T20:25:33.906Z"
  },
  "Puerto Patillas, PR|Puerto Rico": {
    "query": "Puerto Patillas, PR",
    "country": "Puerto Rico",
    "results": [
      {
        "lat": 17.9730225,
        "lng": -66.0162749,
        "displayName": "Puerto Patillas, Campomar, Puerto Rico, 00723, United States",
        "type": "bay",
        "importance": 0.10670416800183105
      }
    ],
    "candidateCount": 1,
    "timestamp": "2026-02-15T20:25:36.882Z"
  },
  "Sun Bay, Vieques|Puerto Rico": {
    "query": "Sun Bay, Vieques",
    "country": "Puerto Rico",
    "results": [
      {
        "lat": 18.0974322,
        "lng": -65.4614379,
        "displayName": "Sun Bay, Carretera Destino - Esperanza, Esperanza, Puerto Real, Vieques, Puerto Rico, 00765, United States",
        "type": "camp_site",
        "importance": 0.000040000762951049326
      }
    ],
    "candidateCount": 1,
    "timestamp": "2026-02-15T20:25:39.765Z"
  },
  "Playa La Chiva, Vieques|Puerto Rico": {
    "query": "Playa La Chiva, Vieques",
    "country": "Puerto Rico",
    "results": [],
    "candidateCount": 0,
    "timestamp": "2026-02-15T20:25:44.232Z"
  },
  "Ensanada Honda, Vieques|Puerto Rico": {
    "query": "Ensanada Honda, Vieques",
    "country": "Puerto Rico",
    "results": [],
    "candidateCount": 0,
    "timestamp": "2026-02-15T20:25:48.131Z"
  },
  "Charlotte Amalie, USVI|Puerto Rico": {
    "query": "Charlotte Amalie, USVI",
    "country": "Puerto Rico",
    "results": [
      {
        "lat": 18.3356533,
        "lng": -64.956052,
        "displayName": "American Red Cross- USVI, Subbase Road, Charlotte Amalie West, Charlotte Amalie, Saint Thomas - Saint John District, United States Virgin Islands, 00803, United States",
        "type": "company",
        "importance": 0.00005829633020518833
      }
    ],
    "candidateCount": 1,
    "timestamp": "2026-02-15T20:25:50.941Z"
  },
  "Charlotte Amalie, USVI|USVI": {
    "query": "Charlotte Amalie, USVI",
    "country": "USVI",
    "results": [
      {
        "lat": 18.3356533,
        "lng": -64.956052,
        "displayName": "American Red Cross- USVI, Subbase Road, Charlotte Amalie West, Charlotte Amalie, Saint Thomas - Saint John District, United States Virgin Islands, 00803, United States",
        "type": "company",
        "importance": 0.00005829633020518833
      }
    ],
    "candidateCount": 1,
    "timestamp": "2026-02-15T20:25:53.299Z"
  },
  "Caneel, St John|USVI": {
    "query": "Caneel, St John",
    "country": "USVI",
    "results": [
      {
        "lat": 18.3369077,
        "lng": -64.7812918,
        "displayName": "Caneel Hill Trail, St. John, Cruz Bay, Saint Thomas - Saint John District, United States Virgin Islands, 00831, United States",
        "type": "path",
        "importance": 0.04004179674982833
      },
      {
        "lat": 18.3396449,
        "lng": -64.7914415,
        "displayName": "Caneel Hill Spur, St. John, Cruz Bay, Saint Thomas - Saint John District, United States Virgin Islands, 00831, United States",
        "type": "path",
        "importance": 0.04004179674982833
      },
      {
        "lat": 18.3333742,
        "lng": -64.7917102,
        "displayName": "Caneel Hill Trailhead, Caneel Hill Trail, St. John, Cruz Bay, Saint Thomas - Saint John District, United States Virgin Islands, 00831, United States",
        "type": "trailhead",
        "importance": 0.00004179674982829049
      }
    ],
    "candidateCount": 3,
    "timestamp": "2026-02-15T20:25:56.181Z"
  },
  "Francis Bay, St John|USVI": {
    "query": "Francis Bay, St John",
    "country": "USVI",
    "results": [
      {
        "lat": 18.3646755,
        "lng": -64.7495817,
        "displayName": "Francis Bay, Saint Thomas - Saint John District, United States Virgin Islands, 00831, United States",
        "type": "bay",
        "importance": 0.10672263447013045
      }
    ],
    "candidateCount": 1,
    "timestamp": "2026-02-15T20:26:01.094Z"
  },
  "Princess Bay|USVI": {
    "query": "Princess Bay",
    "country": "USVI",
    "results": [
      {
        "lat": -41.3449519,
        "lng": 174.7878579,
        "displayName": "Princess Bay, Houghton Bay, Wellington, 6023, New Zealand / Aotearoa",
        "type": "bay",
        "importance": 0.11555415588532474
      },
      {
        "lat": 18.3546761,
        "lng": -64.6931915,
        "displayName": "Princess Bay, Coral Harbour, Saint Thomas - Saint John District, United States Virgin Islands, United States",
        "type": "bay",
        "importance": 0.10672263447013045
      },
      {
        "lat": 48.7192706,
        "lng": -123.3694762,
        "displayName": "Princess Bay, Southern Gulf Islands Electoral Area, Capital Regional District, British Columbia, Canada",
        "type": "bay",
        "importance": 0.10671166781109329
      },
      {
        "lat": 55.3613889,
        "lng": -131.0047222,
        "displayName": "Princess Bay, Ketchikan Gateway Borough, Alaska, United States",
        "type": "bay",
        "importance": 0.10667666666666664
      }
    ],
    "candidateCount": 4,
    "timestamp": "2026-02-15T20:26:04.203Z"
  },
  "Great Lemashur|USVI": {
    "query": "Great Lemashur",
    "country": "USVI",
    "results": [],
    "candidateCount": 0,
    "timestamp": "2026-02-15T20:26:08.398Z"
  },
  "Diamond Cay, BVI|USVI": {
    "query": "Diamond Cay, BVI",
    "country": "USVI",
    "results": [],
    "candidateCount": 0,
    "timestamp": "2026-02-15T20:26:12.526Z"
  },
  "Diamond Cay, BVI|BVI": {
    "query": "Diamond Cay, BVI",
    "country": "BVI",
    "results": [],
    "candidateCount": 0,
    "timestamp": "2026-02-15T20:26:16.532Z"
  },
  "Peter Island, BVI|BVI": {
    "query": "Peter Island, BVI",
    "country": "BVI",
    "results": [],
    "candidateCount": 0,
    "timestamp": "2026-02-15T20:26:20.816Z"
  },
  "Cooper Island via Road Town|BVI": {
    "query": "Cooper Island via Road Town",
    "country": "BVI",
    "results": [],
    "candidateCount": 0,
    "timestamp": "2026-02-15T20:26:25.708Z"
  },
  "Cooper Island|BVI": {
    "query": "Cooper Island",
    "country": "BVI",
    "results": [
      {
        "lat": 18.3779714,
        "lng": -64.510111,
        "displayName": "Cooper Island, Other British Virgin Islands, British Virgin Islands",
        "type": "island",
        "importance": 0.3277099422060028
      }
    ],
    "candidateCount": 1,
    "timestamp": "2026-02-15T20:26:27.321Z"
  },
  "Prickly Pear, Gorda Sound|BVI": {
    "query": "Prickly Pear, Gorda Sound",
    "country": "BVI",
    "results": [],
    "candidateCount": 0,
    "timestamp": "2026-02-15T20:26:31.118Z"
  },
  "Little Dix Bay, Gorda Sound|BVI": {
    "query": "Little Dix Bay, Gorda Sound",
    "country": "BVI",
    "results": [],
    "candidateCount": 0,
    "timestamp": "2026-02-15T20:26:35.881Z"
  },
  "Great Harbour, Peter Island via Cooper Island|BVI": {
    "query": "Great Harbour, Peter Island via Cooper Island",
    "country": "BVI",
    "results": [],
    "candidateCount": 0,
    "timestamp": "2026-02-15T20:26:41.506Z"
  },
  "Great Harbour, Peter Island|BVI": {
    "query": "Great Harbour, Peter Island",
    "country": "BVI",
    "results": [],
    "candidateCount": 0,
    "timestamp": "2026-02-15T20:26:48.436Z"
  },
  "Great Harbour, JVD via Nanny Cay (fuel) and West End (Pussers)|BVI": {
    "query": "Great Harbour, JVD via Nanny Cay (fuel) and West End (Pussers)",
    "country": "BVI",
    "results": [],
    "candidateCount": 0,
    "timestamp": "2026-02-15T20:26:52.661Z"
  },
  "Great Harbour, JVD|USVI": {
    "query": "Great Harbour, JVD",
    "country": "USVI",
    "results": [],
    "candidateCount": 0,
    "timestamp": "2026-02-15T20:26:56.738Z"
  },
  "Lind Pt, USVI via White Bay and West End|USVI": {
    "query": "Lind Pt, USVI via White Bay and West End",
    "country": "USVI",
    "results": [],
    "candidateCount": 0,
    "timestamp": "2026-02-15T20:27:01.034Z"
  },
  "Lindt Pt|USVI": {
    "query": "Lindt Pt",
    "country": "USVI",
    "results": [
      {
        "lat": 41.180957,
        "lng": -8.6560983,
        "displayName": "Lindt, Piso -2, Carriçal, Senhora da Hora, Matosinhos, Porto, 4460-841, Portugal",
        "type": "chocolate",
        "importance": 0.00007251926451509908
      }
    ],
    "candidateCount": 1,
    "timestamp": "2026-02-15T20:27:03.920Z"
  },
  "Christianstad, St. Croix|USVI": {
    "query": "Christianstad, St. Croix",
    "country": "USVI",
    "results": [],
    "candidateCount": 0,
    "timestamp": "2026-02-15T20:27:08.020Z"
  },
  "Frederikstad, St Croix|USVI": {
    "query": "Frederikstad, St Croix",
    "country": "USVI",
    "results": [],
    "candidateCount": 0,
    "timestamp": "2026-02-15T20:27:12.318Z"
  },
  "Rendesvouz Bay|USVI": {
    "query": "Rendesvouz Bay",
    "country": "USVI",
    "results": [],
    "candidateCount": 0,
    "timestamp": "2026-02-15T20:27:16.531Z"
  },
  "Magens Bay|USVI": {
    "query": "Magens Bay",
    "country": "USVI",
    "results": [
      {
        "lat": 33.2551453,
        "lng": -117.3143749,
        "displayName": "Magens Bay, Oceanside, San Diego County, California, 92057, United States",
        "type": "residential",
        "importance": 0.0533920187685969
      }
    ],
    "candidateCount": 1,
    "timestamp": "2026-02-15T20:27:19.414Z"
  },
  "Samana Cay, Bahamas|USVI": {
    "query": "Samana Cay, Bahamas",
    "country": "USVI",
    "results": [
      {
        "lat": 23.084888,
        "lng": -73.7492975,
        "displayName": "Samana Cay, Crooked Island and Long Cay, The Bahamas",
        "type": "island",
        "importance": 0.30712213255484094
      }
    ],
    "candidateCount": 1,
    "timestamp": "2026-02-15T20:27:22.126Z"
  },
  "Samana Cay, Bahamas|Bahamas": {
    "query": "Samana Cay, Bahamas",
    "country": "Bahamas",
    "results": [
      {
        "lat": 23.084888,
        "lng": -73.7492975,
        "displayName": "Samana Cay, Crooked Island and Long Cay, The Bahamas",
        "type": "island",
        "importance": 0.30712213255484094
      }
    ],
    "candidateCount": 1,
    "timestamp": "2026-02-15T20:27:23.546Z"
  },
  "Calabash, Long Island, Bahamas|Bahamas": {
    "query": "Calabash, Long Island, Bahamas",
    "country": "Bahamas",
    "results": [],
    "candidateCount": 0,
    "timestamp": "2026-02-15T20:27:27.905Z"
  },
  "Albany|USA": {
    "query": "Albany",
    "country": "USA",
    "results": [
      {
        "lat": 42.6511674,
        "lng": -73.754968,
        "displayName": "City of Albany, Albany County, New York, United States",
        "type": "administrative",
        "importance": 0.6480289433516969
      },
      {
        "lat": 31.5782062,
        "lng": -84.1556809,
        "displayName": "Albany, Dougherty County, Georgia, United States",
        "type": "administrative",
        "importance": 0.5606280653649818
      },
      {
        "lat": 42.5986896,
        "lng": -73.9843997,
        "displayName": "Albany County, New York, United States",
        "type": "administrative",
        "importance": 0.556426658878593
      },
      {
        "lat": 32.728072,
        "lng": -99.2946024,
        "displayName": "Albany, Shackelford County, Texas, United States",
        "type": "administrative",
        "importance": 0.5115507658769308
      },
      {
        "lat": 44.6365071,
        "lng": -123.1059324,
        "displayName": "Albany, Linn County, Oregon, United States",
        "type": "administrative",
        "importance": 0.5023709998764188
      }
    ],
    "candidateCount": 5,
    "timestamp": "2026-02-15T20:27:29.458Z"
  },
  "Ponce de Leon|USA": {
    "query": "Ponce de Leon",
    "country": "USA",
    "results": [
      {
        "lat": 30.7229671,
        "lng": -85.9374357,
        "displayName": "Ponce de Leon, Holmes County, Florida, United States",
        "type": "administrative",
        "importance": 0.41025313428027543
      },
      {
        "lat": 27.7954565,
        "lng": -82.673539,
        "displayName": "Ponce de Leon, Saint Petersburg, Pinellas County, Florida, 33713, United States",
        "type": "neighbourhood",
        "importance": 0.13340011215381092
      },
      {
        "lat": 36.8758908,
        "lng": -93.3515758,
        "displayName": "Ponce de Leon, Stone County, Missouri, 65728, United States",
        "type": "hamlet",
        "importance": 0.13336833524071104
      }
    ],
    "candidateCount": 3,
    "timestamp": "2026-02-15T20:27:31.022Z"
  },
  "St Augustine|USA": {
    "query": "St Augustine",
    "country": "USA",
    "results": [
      {
        "lat": 40.7183728,
        "lng": -90.4109616,
        "displayName": "St. Augustine, Knox County, Illinois, United States",
        "type": "administrative",
        "importance": 0.4504583412735901
      },
      {
        "lat": 29.8946952,
        "lng": -81.3145395,
        "displayName": "Saint Augustine, Saint Johns County, Florida, 32084, United States",
        "type": "administrative",
        "importance": 0.5608159507405109
      }
    ],
    "candidateCount": 2,
    "timestamp": "2026-02-15T20:27:32.632Z"
  },
  "Brunswick|USA": {
    "query": "Brunswick",
    "country": "USA",
    "results": [
      {
        "lat": 36.7788996,
        "lng": -77.8670883,
        "displayName": "Brunswick County, Virginia, United States",
        "type": "administrative",
        "importance": 0.5391275537192848
      },
      {
        "lat": 31.1499528,
        "lng": -81.4914894,
        "displayName": "Brunswick, Glynn County, Georgia, 32523, United States",
        "type": "administrative",
        "importance": 0.5051790073992356
      },
      {
        "lat": 43.9166529,
        "lng": -69.9659438,
        "displayName": "Brunswick, Cumberland County, Maine, 04011, United States",
        "type": "administrative",
        "importance": 0.5050334617616385
      },
      {
        "lat": 42.7359115,
        "lng": -73.5615043,
        "displayName": "Town of Brunswick, Rensselaer County, New York, United States",
        "type": "administrative",
        "importance": 0.44683527719404204
      },
      {
        "lat": 39.3131621,
        "lng": -77.6281858,
        "displayName": "Brunswick, Frederick County, Maryland, United States",
        "type": "administrative",
        "importance": 0.4283755485057516
      }
    ],
    "candidateCount": 5,
    "timestamp": "2026-02-15T20:27:34.176Z"
  },
  "Cape Fear|USA": {
    "query": "Cape Fear",
    "country": "USA",
    "results": [
      {
        "lat": 33.8461325,
        "lng": -77.963424,
        "displayName": "Cape Fear, Bald Head Island, Brunswick County, North Carolina, United States",
        "type": "cape",
        "importance": 0.37438477800958975
      },
      {
        "lat": 35.42516,
        "lng": -78.8147409,
        "displayName": "Cape Fear, Harnett County, North Carolina, 27543, United States",
        "type": "hamlet",
        "importance": 0.13336833524071104
      }
    ],
    "candidateCount": 2,
    "timestamp": "2026-02-15T20:27:35.923Z"
  },
  "Lookout Bight (Hatteras)|USA": {
    "query": "Lookout Bight (Hatteras)",
    "country": "USA",
    "results": [],
    "candidateCount": 0,
    "timestamp": "2026-02-15T20:27:40.267Z"
  },
  "York River, VA|USA": {
    "query": "York River, VA",
    "country": "USA",
    "results": [
      {
        "lat": 37.3154374,
        "lng": -76.5920459,
        "displayName": "York River, Gloucester County, Virginia, United States",
        "type": "river",
        "importance": 0.42005125156537226
      }
    ],
    "candidateCount": 1,
    "timestamp": "2026-02-15T20:27:41.701Z"
  },
  "Cape Charles|USA": {
    "query": "Cape Charles",
    "country": "USA",
    "results": [
      {
        "lat": 37.2671674,
        "lng": -76.0176986,
        "displayName": "Cape Charles, Northampton County, Virginia, United States",
        "type": "administrative",
        "importance": 0.41828013814504167
      }
    ],
    "candidateCount": 1,
    "timestamp": "2026-02-15T20:27:43.305Z"
  },
  "Reedville|USA": {
    "query": "Reedville",
    "country": "USA",
    "results": [
      {
        "lat": 45.497778,
        "lng": -122.901111,
        "displayName": "Reedville, Washington County, Oregon, 97003, United States",
        "type": "suburb",
        "importance": 0.33973472073036687
      },
      {
        "lat": 37.8420743,
        "lng": -76.2757772,
        "displayName": "Reedville, Northumberland County, Virginia, 22539, United States",
        "type": "village",
        "importance": 0.3177684562015995
      },
      {
        "lat": 43.2620193,
        "lng": -72.6578715,
        "displayName": "Reedville, Chester, Windsor County, Vermont, 05143, United States",
        "type": "hamlet",
        "importance": 0.13338266651407643
      },
      {
        "lat": 44.1014522,
        "lng": -75.6543716,
        "displayName": "Reedville, Town of Wilna, Jefferson County, New York, United States",
        "type": "hamlet",
        "importance": 0.13337133516441593
      },
      {
        "lat": 29.8796648,
        "lng": -97.8463922,
        "displayName": "Reedville, Caldwell County, Texas, 78656, United States",
        "type": "hamlet",
        "importance": 0.13336833524071104
      }
    ],
    "candidateCount": 5,
    "timestamp": "2026-02-15T20:27:44.734Z"
  },
  "Annapolis|USA": {
    "query": "Annapolis",
    "country": "USA",
    "results": [
      {
        "lat": 38.9786401,
        "lng": -76.492786,
        "displayName": "Annapolis, Anne Arundel County, Maryland, United States",
        "type": "administrative",
        "importance": 0.6280413651886226
      },
      {
        "lat": 37.3603272,
        "lng": -90.6976197,
        "displayName": "Annapolis, Iron County, Missouri, United States",
        "type": "administrative",
        "importance": 0.41371448961733565
      },
      {
        "lat": 39.8525403,
        "lng": -87.2505685,
        "displayName": "Annapolis, Parke County, Indiana, 47832, United States",
        "type": "hamlet",
        "importance": 0.33490418538826533
      },
      {
        "lat": 39.1444842,
        "lng": -87.8166964,
        "displayName": "Annapolis, Crawford County, Illinois, 62413, United States",
        "type": "hamlet",
        "importance": 0.3260874163190326
      },
      {
        "lat": 47.5475957,
        "lng": -122.6206931,
        "displayName": "Annapolis, Port Orchard, Kitsap County, Washington, 98337, United States",
        "type": "hamlet",
        "importance": 0.30196001806411854
      }
    ],
    "candidateCount": 5,
    "timestamp": "2026-02-15T20:27:46.021Z"
  },
  "Dobbins Island, MD|USA": {
    "query": "Dobbins Island, MD",
    "country": "USA",
    "results": [
      {
        "lat": 39.0781305,
        "lng": -76.4604491,
        "displayName": "Dobbins Island, Anne Arundel County, Maryland, United States",
        "type": "islet",
        "importance": 0.13338244373235675
      }
    ],
    "candidateCount": 1,
    "timestamp": "2026-02-15T20:27:47.435Z"
  },
  "Sassafras River|USA": {
    "query": "Sassafras River",
    "country": "USA",
    "results": [
      {
        "lat": 39.3737063,
        "lng": -75.9684665,
        "displayName": "Sassafras River, Kent County, Maryland, United States",
        "type": "river",
        "importance": 0.14670166857404435
      },
      {
        "lat": 39.3775338,
        "lng": -75.8074841,
        "displayName": "Sassafras River, Cecil County, Maryland, 21912, United States",
        "type": "river",
        "importance": 0.14670166857404435
      },
      {
        "lat": 39.3643662,
        "lng": -75.8821399,
        "displayName": "Sassafras River, Fredericktown, Cecil County, Maryland, 21930, United States",
        "type": "river",
        "importance": 0.14670166857404435
      },
      {
        "lat": 39.3873595,
        "lng": -76.0632911,
        "displayName": "Sassafras River, Kent County, Maryland, 21610, United States",
        "type": "river",
        "importance": 0.1466913672083619
      },
      {
        "lat": 39.3800116,
        "lng": -75.7850274,
        "displayName": "Sassafras River, Cecil County, Maryland, United States",
        "type": "stream",
        "importance": 0.10670166857404438
      }
    ],
    "candidateCount": 5,
    "timestamp": "2026-02-15T20:27:48.867Z"
  },
  "Cape May, NJ|USA": {
    "query": "Cape May, NJ",
    "country": "USA",
    "results": [
      {
        "lat": 39.1765386,
        "lng": -74.8012119,
        "displayName": "Cape May County, New Jersey, United States",
        "type": "administrative",
        "importance": 0.5113884634305322
      },
      {
        "lat": 38.933431,
        "lng": -74.9214226,
        "displayName": "Cape May, Cape May County, New Jersey, 18204, United States",
        "type": "administrative",
        "importance": 0.46562980374353397
      },
      {
        "lat": 39.0503479,
        "lng": -74.8418879,
        "displayName": "Cape May, Cape May County, New Jersey, United States",
        "type": "peninsula",
        "importance": 0.36417201022578227
      }
    ],
    "candidateCount": 3,
    "timestamp": "2026-02-15T20:27:50.607Z"
  },
  "Sandy Hook, NJ|USA": {
    "query": "Sandy Hook, NJ",
    "country": "USA",
    "results": [
      {
        "lat": 40.4617245,
        "lng": -74.0020241,
        "displayName": "Sandy Hook Lighthouse, Hudson Road, Fort Hancock, Middletown Township, Monmouth County, New Jersey, United States",
        "type": "lighthouse",
        "importance": 0.36107739355702545
      },
      {
        "lat": 40.4856614,
        "lng": -73.990699,
        "displayName": "Sandy Hook Channel, Middletown Township, Monmouth County, New Jersey, United States",
        "type": "fairway",
        "importance": 0.14667666666666662
      },
      {
        "lat": 40.480817,
        "lng": -74.0126375,
        "displayName": "Sandy Hook Channel Bayside Reach, Middletown Township, Monmouth County, New Jersey, United States",
        "type": "fairway",
        "importance": 0.1333885046158541
      },
      {
        "lat": 40.4678692,
        "lng": -73.9605844,
        "displayName": "Sandy Hook Channel East Section, Monmouth County, New Jersey, United States",
        "type": "fairway",
        "importance": 0.1333433333333333
      },
      {
        "lat": 40.4417778,
        "lng": -74.0293158,
        "displayName": "Sandy Hook Bay, Atlantic Highlands, Monmouth County, New Jersey, United States",
        "type": "bay",
        "importance": 0.10672183794918744
      }
    ],
    "candidateCount": 5,
    "timestamp": "2026-02-15T20:27:52.180Z"
  },
  "Liberty Landing, NJ|USA": {
    "query": "Liberty Landing, NJ",
    "country": "USA",
    "results": [
      {
        "lat": 40.7104935,
        "lng": -74.0439617,
        "displayName": "Liberty Landing Marina, Warren Street, Downtown Jersey City, Jersey City, Hudson County, New Jersey, 07311, United States",
        "type": "marina",
        "importance": 0.00006566796368348237
      },
      {
        "lat": 40.7232018,
        "lng": -74.6878967,
        "displayName": "Liberty Cross Landing Heliport, US Highway 206, Bedminster Township, Somerset County, New Jersey, 07931, United States",
        "type": "helipad",
        "importance": 0.00004286793316543858
      }
    ],
    "candidateCount": 2,
    "timestamp": "2026-02-15T20:27:53.699Z"
  },
  "Norfolk (Waterside Marina), VA|USA": {
    "query": "Norfolk (Waterside Marina), VA",
    "country": "USA",
    "results": [],
    "candidateCount": 0,
    "timestamp": "2026-02-15T20:27:59.130Z"
  },
  "West End, Grand Bahama|USA": {
    "query": "West End, Grand Bahama",
    "country": "USA",
    "results": [
      {
        "lat": 26.6850232,
        "lng": -78.9647591,
        "displayName": "West End, West Grand Bahama, The Bahamas",
        "type": "town",
        "importance": 0.16004592584115357
      }
    ],
    "candidateCount": 1,
    "timestamp": "2026-02-15T20:28:02.230Z"
  },
  "West End, Grand Bahama|Bahamas": {
    "query": "West End, Grand Bahama",
    "country": "Bahamas",
    "results": [
      {
        "lat": 26.6850232,
        "lng": -78.9647591,
        "displayName": "West End, West Grand Bahama, The Bahamas",
        "type": "town",
        "importance": 0.16004592584115357
      }
    ],
    "candidateCount": 1,
    "timestamp": "2026-02-15T20:28:03.817Z"
  },
  "Mangrove Cay, Grand Bahama|Bahamas": {
    "query": "Mangrove Cay, Grand Bahama",
    "country": "Bahamas",
    "results": [],
    "candidateCount": 0,
    "timestamp": "2026-02-15T20:28:08.214Z"
  },
  "Great Sale Cay, Grand Bahama|Bahamas": {
    "query": "Great Sale Cay, Grand Bahama",
    "country": "Bahamas",
    "results": [
      {
        "lat": 26.9874825,
        "lng": -78.2106513,
        "displayName": "Great Sale Cay, Grand Cay, The Bahamas",
        "type": "island",
        "importance": 0.1733796284428168
      }
    ],
    "candidateCount": 1,
    "timestamp": "2026-02-15T20:28:09.684Z"
  },
  "Spanish Cay, Abacos|Bahamas": {
    "query": "Spanish Cay, Abacos",
    "country": "Bahamas",
    "results": [],
    "candidateCount": 0,
    "timestamp": "2026-02-15T20:28:13.901Z"
  },
  "Spanish Cay|Bahamas": {
    "query": "Spanish Cay",
    "country": "Bahamas",
    "results": [
      {
        "lat": 26.9467489,
        "lng": -77.5376103,
        "displayName": "Spanish Cay, North Abaco, The Bahamas",
        "type": "island",
        "importance": 0.1733791126878767
      },
      {
        "lat": 26.4972173,
        "lng": -78.695119,
        "displayName": "Spanish Cay, Bahamia, City of Freeport, The Bahamas",
        "type": "residential",
        "importance": 0.05338705806057828
      }
    ],
    "candidateCount": 2,
    "timestamp": "2026-02-15T20:28:15.373Z"
  },
  "Powell Cay, Abacos|Bahamas": {
    "query": "Powell Cay, Abacos",
    "country": "Bahamas",
    "results": [],
    "candidateCount": 0,
    "timestamp": "2026-02-15T20:28:19.979Z"
  },
  "Manjack Cay|Bahamas": {
    "query": "Manjack Cay",
    "country": "Bahamas",
    "results": [
      {
        "lat": 30.4706031,
        "lng": -97.6446165,
        "displayName": "Manjack Cay Drive, Pflugerville, Travis County, Texas, 78664, United States",
        "type": "residential",
        "importance": 0.05338873197528035
      },
      {
        "lat": 18.0352298,
        "lng": -63.0758796,
        "displayName": "Manjack Drive, Cole Bay, Cul-de-Sac, Sint Maarten, Nederland",
        "type": "residential",
        "importance": 0.05338843595025555
      }
    ],
    "candidateCount": 2,
    "timestamp": "2026-02-15T20:28:22.879Z"
  },
  "Crab Cay|Bahamas": {
    "query": "Crab Cay",
    "country": "Bahamas",
    "results": [
      {
        "lat": 25.4202211,
        "lng": -77.901741,
        "displayName": "Crab Cay, Berry Islands, The Bahamas",
        "type": "island",
        "importance": 0.17338266651407644
      },
      {
        "lat": 26.8143239,
        "lng": -77.3598243,
        "displayName": "Crab Cay, Green Turtle Cay, The Bahamas",
        "type": "island",
        "importance": 0.17337557412069884
      },
      {
        "lat": 25.2101421,
        "lng": -78.2165764,
        "displayName": "Crab Cay, North Andros, The Bahamas",
        "type": "islet",
        "importance": 0.13338045853360797
      },
      {
        "lat": 26.9244718,
        "lng": -77.5988761,
        "displayName": "Crab Cay, North Abaco, The Bahamas",
        "type": "islet",
        "importance": 0.1333791126878767
      },
      {
        "lat": 23.4905457,
        "lng": -75.7430964,
        "displayName": "Crab Cay, Exuma, The Bahamas",
        "type": "island",
        "importance": 0.07085170629346904
      }
    ],
    "candidateCount": 5,
    "timestamp": "2026-02-15T20:28:24.337Z"
  },
  "Man Of War Cay|Bahamas": {
    "query": "Man Of War Cay",
    "country": "Bahamas",
    "results": [],
    "candidateCount": 0,
    "timestamp": "2026-02-15T20:28:29.780Z"
  },
  "Parrot Cay (off Elbow Cay)|Bahamas": {
    "query": "Parrot Cay (off Elbow Cay)",
    "country": "Bahamas",
    "results": [],
    "candidateCount": 0,
    "timestamp": "2026-02-15T20:28:34.272Z"
  },
  "Matt Lowe's Cay|Bahamas": {
    "query": "Matt Lowe's Cay",
    "country": "Bahamas",
    "results": [
      {
        "lat": 26.5638642,
        "lng": -77.014605,
        "displayName": "Matt Lowe's Cay, Central Abaco, The Bahamas",
        "type": "islet",
        "importance": 0.13337984664682992
      }
    ],
    "candidateCount": 1,
    "timestamp": "2026-02-15T20:28:35.540Z"
  },
  "Abaco Beach Resort|Bahamas": {
    "query": "Abaco Beach Resort",
    "country": "Bahamas",
    "results": [],
    "candidateCount": 0,
    "timestamp": "2026-02-15T20:28:39.796Z"
  },
  "Mermaid Reef|Bahamas": {
    "query": "Mermaid Reef",
    "country": "Bahamas",
    "results": [
      {
        "lat": -17.04352,
        "lng": 119.6259746,
        "displayName": "Mermaid Reef",
        "type": "islet",
        "importance": 0.1333433333333333
      },
      {
        "lat": -17.0958805,
        "lng": 119.6242126,
        "displayName": "Mermaid Reef",
        "type": "reef",
        "importance": 0.10667666666666664
      },
      {
        "lat": -31.7631115,
        "lng": 152.8082275,
        "displayName": "Mermaid Reef, New South Wales, Australia",
        "type": "reef",
        "importance": 0.10667666666666664
      }
    ],
    "candidateCount": 3,
    "timestamp": "2026-02-15T20:28:42.760Z"
  },
  "Tilloo Cut|Bahamas": {
    "query": "Tilloo Cut",
    "country": "Bahamas",
    "results": [
      {
        "lat": 26.4935482,
        "lng": -76.9849508,
        "displayName": "Tilloo Cut, Hope Town, The Bahamas",
        "type": "bay",
        "importance": 0.10671235141527426
      }
    ],
    "candidateCount": 1,
    "timestamp": "2026-02-15T20:28:44.171Z"
  },
  "Lynyard Cay|Bahamas": {
    "query": "Lynyard Cay",
    "country": "Bahamas",
    "results": [
      {
        "lat": 26.3680953,
        "lng": -76.9814027,
        "displayName": "Lynyard Cay, South Abaco, The Bahamas",
        "type": "island",
        "importance": 0.17337913099870297
      }
    ],
    "candidateCount": 1,
    "timestamp": "2026-02-15T20:28:45.566Z"
  },
  "Devil's Cay, Berry Islands|Bahamas": {
    "query": "Devil's Cay, Berry Islands",
    "country": "Bahamas",
    "results": [
      {
        "lat": 25.6001356,
        "lng": -77.7287619,
        "displayName": "Devil's Cay, Berry Islands, The Bahamas",
        "type": "island",
        "importance": 0.17338266651407644
      }
    ],
    "candidateCount": 1,
    "timestamp": "2026-02-15T20:28:47.029Z"
  },
  "Great Harbour Cay|Bahamas": {
    "query": "Great Harbour Cay",
    "country": "Bahamas",
    "results": [
      {
        "lat": 25.7546547,
        "lng": -77.8565773,
        "displayName": "Great Harbour Cay, Berry Islands, The Bahamas",
        "type": "island",
        "importance": 0.2328416436185146
      }
    ],
    "candidateCount": 1,
    "timestamp": "2026-02-15T20:28:48.548Z"
  },
  "Diamond Cay, BVI|Bahamas": {
    "query": "Diamond Cay, BVI",
    "country": "Bahamas",
    "results": [],
    "candidateCount": 0,
    "timestamp": "2026-02-15T20:28:52.339Z"
  },
  "Diamond Cay, Berries|Bahamas": {
    "query": "Diamond Cay, Berries",
    "country": "Bahamas",
    "results": [],
    "candidateCount": 0,
    "timestamp": "2026-02-15T20:28:56.544Z"
  },
  "Egg Island, Eleuthera|Bahamas": {
    "query": "Egg Island, Eleuthera",
    "country": "Bahamas",
    "results": [],
    "candidateCount": 0,
    "timestamp": "2026-02-15T20:29:00.651Z"
  },
  "Harbour Island, Eleuthera|Bahamas": {
    "query": "Harbour Island, Eleuthera",
    "country": "Bahamas",
    "results": [],
    "candidateCount": 0,
    "timestamp": "2026-02-15T20:29:04.757Z"
  },
  "Meek's Patch, Eleuthera|Bahamas": {
    "query": "Meek's Patch, Eleuthera",
    "country": "Bahamas",
    "results": [],
    "candidateCount": 0,
    "timestamp": "2026-02-15T20:29:08.960Z"
  },
  "Tarpum Bay, Eleuthera|Bahamas": {
    "query": "Tarpum Bay, Eleuthera",
    "country": "Bahamas",
    "results": [
      {
        "lat": 24.9716817,
        "lng": -76.1825135,
        "displayName": "Tarpum Bay, South Eleuthera, The Bahamas",
        "type": "town",
        "importance": 0.16004500114442663
      }
    ],
    "candidateCount": 1,
    "timestamp": "2026-02-15T20:29:10.395Z"
  },
  "Cape Eleuthera Marina|Bahamas": {
    "query": "Cape Eleuthera Marina",
    "country": "Bahamas",
    "results": [
      {
        "lat": 24.8366721,
        "lng": -76.3418131,
        "displayName": "Cape Eleuthera Resort & Marina, South Eleuthera, The Bahamas",
        "type": "hotel",
        "importance": 0.000045001144426596745
      }
    ],
    "candidateCount": 1,
    "timestamp": "2026-02-15T20:29:11.681Z"
  },
  "Little San Salvador|Bahamas": {
    "query": "Little San Salvador",
    "country": "Bahamas",
    "results": [
      {
        "lat": 24.5770527,
        "lng": -75.9232579,
        "displayName": "Half Moon Cay, Cat Island, The Bahamas",
        "type": "island",
        "importance": 0.2345952151314245
      }
    ],
    "candidateCount": 1,
    "timestamp": "2026-02-15T20:29:13.532Z"
  },
  "San Salvador|Bahamas": {
    "query": "San Salvador",
    "country": "Bahamas",
    "results": [
      {
        "lat": 24.032,
        "lng": -74.4900167,
        "displayName": "San Salvador, The Bahamas",
        "type": "administrative",
        "importance": 0.4567135667187761
      }
    ],
    "candidateCount": 1,
    "timestamp": "2026-02-15T20:29:15.884Z"
  },
  "Rum Cay|TCI": {
    "query": "Rum Cay",
    "country": "TCI",
    "results": [
      {
        "lat": 23.8263065,
        "lng": -74.9326829,
        "displayName": "Rum Cay, The Bahamas",
        "type": "administrative",
        "importance": 0.4028239321463142
      },
      {
        "lat": 23.6738549,
        "lng": -74.8708236,
        "displayName": "Rum Cay, The Bahamas",
        "type": "island",
        "importance": 0.4028239321463142
      },
      {
        "lat": 25.4683804,
        "lng": -78.03282,
        "displayName": "Rum Cay, Berry Islands, The Bahamas",
        "type": "island",
        "importance": 0.17338266651407644
      },
      {
        "lat": 23.6796894,
        "lng": -74.8663188,
        "displayName": "Rum Cay, The Bahamas",
        "type": "region",
        "importance": 0.16004698939497977
      }
    ],
    "candidateCount": 4,
    "timestamp": "2026-02-15T20:29:18.461Z"
  },
  "Western Caicos|TCI": {
    "query": "Western Caicos",
    "country": "TCI",
    "results": [],
    "candidateCount": 0,
    "timestamp": "2026-02-15T20:29:22.611Z"
  },
  "South Bank Marina Entrace|TCI": {
    "query": "South Bank Marina Entrace",
    "country": "TCI",
    "results": [],
    "candidateCount": 0,
    "timestamp": "2026-02-15T20:29:26.646Z"
  },
  "Blue Haven Marina|TCI": {
    "query": "Blue Haven Marina",
    "country": "TCI",
    "results": [
      {
        "lat": 21.8168781,
        "lng": -72.1470431,
        "displayName": "Blue Haven Resort – All-Inclusive, Marina Road, Providenciales, TKCA 1ZZ, Turks and Caicos Islands",
        "type": "hotel",
        "importance": 0.00000999999999995449
      }
    ],
    "candidateCount": 1,
    "timestamp": "2026-02-15T20:29:28.591Z"
  },
  "Six Hills Cay|TCI": {
    "query": "Six Hills Cay",
    "country": "TCI",
    "results": [],
    "candidateCount": 0,
    "timestamp": "2026-02-15T20:29:34.556Z"
  },
  "Cockburn Harbour|TCI": {
    "query": "Cockburn Harbour",
    "country": "TCI",
    "results": [
      {
        "lat": 21.498342,
        "lng": -71.5296449,
        "displayName": "Cockburn Harbour, East Caicos, Turks and Caicos Islands",
        "type": "town",
        "importance": 0.16002814755474173
      }
    ],
    "candidateCount": 1,
    "timestamp": "2026-02-15T20:29:35.810Z"
  },
  "Salt Cay|TCI": {
    "query": "Salt Cay",
    "country": "TCI",
    "results": [
      {
        "lat": 21.3228395,
        "lng": -71.2077909,
        "displayName": "Salt Cay, Balfour Town, Salt Cay, Turks and Caicos Islands",
        "type": "island",
        "importance": 0.3300696689354899
      },
      {
        "lat": 21.3228395,
        "lng": -71.2077909,
        "displayName": "Salt Cay, Turks and Caicos Islands",
        "type": "administrative",
        "importance": 0.24003750133516438
      }
    ],
    "candidateCount": 2,
    "timestamp": "2026-02-15T20:29:37.261Z"
  },
  "Grand Turk|TCI": {
    "query": "Grand Turk",
    "country": "TCI",
    "results": [
      {
        "lat": 21.467964,
        "lng": -71.1387218,
        "displayName": "Grand Turk, Cockburn Town, Grand Turk, Turks and Caicos Islands",
        "type": "island",
        "importance": 0.4189900278809485
      },
      {
        "lat": 21.467964,
        "lng": -71.1387218,
        "displayName": "Grand Turk, Turks and Caicos Islands",
        "type": "administrative",
        "importance": 0.24005412451361866
      }
    ],
    "candidateCount": 2,
    "timestamp": "2026-02-15T20:29:38.694Z"
  },
  "Gibbs Cay|TCI": {
    "query": "Gibbs Cay",
    "country": "TCI",
    "results": [
      {
        "lat": 21.4422544,
        "lng": -71.1120485,
        "displayName": "Gibbs Cay, Cockburn Town, Grand Turk, Turks and Caicos Islands",
        "type": "islet",
        "importance": 0.11555415588532474
      }
    ],
    "candidateCount": 1,
    "timestamp": "2026-02-15T20:29:40.104Z"
  },
  "Gibbs Cay|Puerto Rico": {
    "query": "Gibbs Cay",
    "country": "Puerto Rico",
    "results": [
      {
        "lat": 21.4422544,
        "lng": -71.1120485,
        "displayName": "Gibbs Cay, Cockburn Town, Grand Turk, Turks and Caicos Islands",
        "type": "islet",
        "importance": 0.11555415588532474
      }
    ],
    "candidateCount": 1,
    "timestamp": "2026-02-15T20:29:42.867Z"
  },
  "Palmas de Mar, Puerto Rico|Puerto Rico": {
    "query": "Palmas de Mar, Puerto Rico",
    "country": "Puerto Rico",
    "results": [
      {
        "lat": 18.4727502,
        "lng": -67.1489476,
        "displayName": "Parque Las Palmas \"Édgar Morales Maldonado\", Costa del Mar, Camaceyes, Aguadilla, Puerto Rico, United States",
        "type": "park",
        "importance": 0.08004436636911572
      },
      {
        "lat": 18.1130219,
        "lng": -65.7974572,
        "displayName": "Carretera Chalets de las Palmas, Palacios del Sol, Mar y Palmas, Buena Vista, Humacao, Puerto Rico, 00972, United States",
        "type": "tertiary",
        "importance": 0.05338746395056074
      },
      {
        "lat": 18.0835466,
        "lng": -65.8007426,
        "displayName": "Palmas Inn Drive, Palmas del Mar, Palladio, Candelero Abajo, Humacao, Puerto Rico, 00972, United States",
        "type": "residential",
        "importance": 0.05338746395056074
      },
      {
        "lat": 17.9844425,
        "lng": -66.0285047,
        "displayName": "Calle Palmas, El Palmar II, Palmas, Arroyo, Puerto Rico, 00723, United States",
        "type": "residential",
        "importance": 0.05337333409628439
      },
      {
        "lat": 18.0812951,
        "lng": -65.8023276,
        "displayName": "Palmas Drive, Parcelas Martínez, Palladio, Candelero Abajo, Humacao, Puerto Rico, 00972, United States",
        "type": "residential",
        "importance": 0.053370834668497714
      }
    ],
    "candidateCount": 5,
    "timestamp": "2026-02-15T20:29:46.250Z"
  },
  "Punta Bermudes, Vieques|Puerto Rico": {
    "query": "Punta Bermudes, Vieques",
    "country": "Puerto Rico",
    "results": [],
    "candidateCount": 0,
    "timestamp": "2026-02-15T20:29:50.336Z"
  },
  "Culebra|Puerto Rico": {
    "query": "Culebra",
    "country": "Puerto Rico",
    "results": [
      {
        "lat": 18.3136776,
        "lng": -65.2826226,
        "displayName": "Culebra, Puerto Rico, 00775, United States",
        "type": "administrative",
        "importance": 0.48467961968369505
      }
    ],
    "candidateCount": 1,
    "timestamp": "2026-02-15T20:29:53.210Z"
  },
  "Cayo Luis Pena, Culebra|Puerto Rico": {
    "query": "Cayo Luis Pena, Culebra",
    "country": "Puerto Rico",
    "results": [
      {
        "lat": 18.30541,
        "lng": -65.3328844,
        "displayName": "Cayo Luis Peña, Flamenco, Culebra, Puerto Rico, United States",
        "type": "island",
        "importance": 0.23110831177064947
      },
      {
        "lat": 18.2993958,
        "lng": -65.3313414,
        "displayName": "Cayo Luis Pena, Flamenco, Culebra, Puerto Rico, United States",
        "type": "beach",
        "importance": 0.10670416800183105
      }
    ],
    "candidateCount": 2,
    "timestamp": "2026-02-15T20:29:55.920Z"
  },
  "West Coast Culebrita|Puerto Rico": {
    "query": "West Coast Culebrita",
    "country": "Puerto Rico",
    "results": [],
    "candidateCount": 0,
    "timestamp": "2026-02-15T20:30:00.280Z"
  },
  "Puerto Del Ray|Puerto Rico": {
    "query": "Puerto Del Ray",
    "country": "Puerto Rico",
    "results": [
      {
        "lat": -25.5240675,
        "lng": -54.6227226,
        "displayName": "Ray, Bougermini, NF Kuarahy Resẽ Terminal, Área 8, Ciudad del Este, Alto Paraná, Región Oriental, 100151, Paraguay / Paraguái",
        "type": "yes",
        "importance": 0.00005624856946665167
      },
      {
        "lat": 27.7846518,
        "lng": -15.7162591,
        "displayName": "Punta del Ray, Avenida de Mogán, Puerto Rico, Mogán, Las Palmas, Canarias, 35130, España",
        "type": "hotel",
        "importance": 0.00005106660563053357
      }
    ],
    "candidateCount": 2,
    "timestamp": "2026-02-15T20:30:04.221Z"
  },
  "Rendesvouz Bay, St John|Puerto Rico": {
    "query": "Rendesvouz Bay, St John",
    "country": "Puerto Rico",
    "results": [],
    "candidateCount": 0,
    "timestamp": "2026-02-15T20:30:08.102Z"
  },
  "Rendesvouz Bay, St John|USVI": {
    "query": "Rendesvouz Bay, St John",
    "country": "USVI",
    "results": [],
    "candidateCount": 0,
    "timestamp": "2026-02-15T20:30:11.826Z"
  },
  "Simpson Bay, St Maarten|USVI": {
    "query": "Simpson Bay, St Maarten",
    "country": "USVI",
    "results": [
      {
        "lat": 18.0396777,
        "lng": -63.0972367,
        "displayName": "Simpson Bay, Sint Maarten, Nederland",
        "type": "village",
        "importance": 0.19934751714046123
      },
      {
        "lat": 18.0339338,
        "lng": -63.1042437,
        "displayName": "Simson Baai, Simpson Bay, Sint Maarten, Nederland",
        "type": "bay",
        "importance": 0.1067217692835889
      }
    ],
    "candidateCount": 2,
    "timestamp": "2026-02-15T20:30:15.478Z"
  },
  "Simpson Bay, St Maarten|St Maarten": {
    "query": "Simpson Bay, St Maarten",
    "country": "St Maarten",
    "results": [
      {
        "lat": 18.0396777,
        "lng": -63.0972367,
        "displayName": "Simpson Bay, Sint Maarten, Nederland",
        "type": "village",
        "importance": 0.19934751714046123
      },
      {
        "lat": 18.0339338,
        "lng": -63.1042437,
        "displayName": "Simson Baai, Simpson Bay, Sint Maarten, Nederland",
        "type": "bay",
        "importance": 0.1067217692835889
      }
    ],
    "candidateCount": 2,
    "timestamp": "2026-02-15T20:30:18.245Z"
  },
  "Port de Plaisance, Simpson Bay, St Maarten|St Maarten": {
    "query": "Port de Plaisance, Simpson Bay, St Maarten",
    "country": "St Maarten",
    "results": [
      {
        "lat": 18.0387247,
        "lng": -63.088988,
        "displayName": "Princess Port de Plaisance Resort, Pelican Key, Simpson Bay, Sint Maarten, Nederland",
        "type": "islet",
        "importance": 0.13338843595025557
      },
      {
        "lat": 18.0417179,
        "lng": -63.0852891,
        "displayName": "Port de Plaisance Drive, Pelican Key, Simpson Bay, Sint Maarten, Nederland",
        "type": "unclassified",
        "importance": 0.05338843595025555
      },
      {
        "lat": 18.0401177,
        "lng": -63.0866993,
        "displayName": "Port de Plaisance Roundabout, Pelican Key, Simpson Bay, Sint Maarten, Nederland",
        "type": "unclassified",
        "importance": 0.05338843595025555
      },
      {
        "lat": 18.0391415,
        "lng": -63.0890149,
        "displayName": "Princess Yacht Club/Port de Plaisance, Isle del Sol Road, Pelican Key, Simpson Bay, Sint Maarten, Nederland",
        "type": "marina",
        "importance": 0.00005510261692220977
      }
    ],
    "candidateCount": 4,
    "timestamp": "2026-02-15T20:30:21.446Z"
  },
  "Philipsburg, St Maarten|St Maarten": {
    "query": "Philipsburg, St Maarten",
    "country": "St Maarten",
    "results": [
      {
        "lat": 18.0250713,
        "lng": -63.0483073,
        "displayName": "Philipsburg, Sint Maarten, Nederland",
        "type": "town",
        "importance": 0.4866172934014507
      },
      {
        "lat": 18.0292604,
        "lng": -63.0467992,
        "displayName": "Philipsburg, Sint Maarten, Nederland",
        "type": "administrative",
        "importance": 0.21338843595025556
      }
    ],
    "candidateCount": 2,
    "timestamp": "2026-02-15T20:30:24.375Z"
  },
  "Philipsburg, St Maarten|Panama": {
    "query": "Philipsburg, St Maarten",
    "country": "Panama",
    "results": [
      {
        "lat": 18.0250713,
        "lng": -63.0483073,
        "displayName": "Philipsburg, Sint Maarten, Nederland",
        "type": "town",
        "importance": 0.4866172934014507
      },
      {
        "lat": 18.0292604,
        "lng": -63.0467992,
        "displayName": "Philipsburg, Sint Maarten, Nederland",
        "type": "administrative",
        "importance": 0.21338843595025556
      }
    ],
    "candidateCount": 2,
    "timestamp": "2026-02-15T20:30:26.927Z"
  },
  "Colon, Panama|Panama": {
    "query": "Colon, Panama",
    "country": "Panama",
    "results": [
      {
        "lat": 9.3553005,
        "lng": -79.8974085,
        "displayName": "Colón, Barrio Sur, Colón, 9851, Panamá",
        "type": "city",
        "importance": 0.5185860598414751
      },
      {
        "lat": 9.2353086,
        "lng": -80.2532526,
        "displayName": "Colón, Panamá",
        "type": "administrative",
        "importance": 0.4831152386245737
      },
      {
        "lat": 9.2194598,
        "lng": -79.8064479,
        "displayName": "Colón, Panamá",
        "type": "administrative",
        "importance": 0.42674896514233895
      }
    ],
    "candidateCount": 3,
    "timestamp": "2026-02-15T20:30:28.564Z"
  },
  "Isla Bastimentos, Bocas|Panama": {
    "query": "Isla Bastimentos, Bocas",
    "country": "Panama",
    "results": [
      {
        "lat": 9.3040623,
        "lng": -82.1284815,
        "displayName": "Isla Bastimentos, Bastimentos, Bocas del Toro, Panamá",
        "type": "administrative",
        "importance": 0.3352614827140233
      }
    ],
    "candidateCount": 1,
    "timestamp": "2026-02-15T20:30:29.982Z"
  },
  "Bllue Haven, Bocas|Panama": {
    "query": "Bllue Haven, Bocas",
    "country": "Panama",
    "results": [],
    "candidateCount": 0,
    "timestamp": "2026-02-15T20:30:33.944Z"
  },
  "Cayo Zapatillo, Bocas|Panama": {
    "query": "Cayo Zapatillo, Bocas",
    "country": "Panama",
    "results": [],
    "candidateCount": 0,
    "timestamp": "2026-02-15T20:30:38.266Z"
  },
  "Starfish Beach|Panama": {
    "query": "Starfish Beach",
    "country": "Panama",
    "results": [
      {
        "lat": 9.4048352,
        "lng": -82.3254508,
        "displayName": "Playa Estrella, Boca del Drago, Bocas del Toro, Panamá",
        "type": "beach",
        "importance": 0.10671166781109329
      },
      {
        "lat": 9.5076522,
        "lng": -78.7941817,
        "displayName": "Playa de las Estrellas, Guna Yala, Panamá",
        "type": "monument",
        "importance": 0.000040000762951049326
      }
    ],
    "candidateCount": 2,
    "timestamp": "2026-02-15T20:30:39.684Z"
  },
  "Bluefield, Bocas|Panama": {
    "query": "Bluefield, Bocas",
    "country": "Panama",
    "results": [],
    "candidateCount": 0,
    "timestamp": "2026-02-15T20:30:43.862Z"
  },
  "Escudo de Veraguas|Panama": {
    "query": "Escudo de Veraguas",
    "country": "Panama",
    "results": [
      {
        "lat": 9.0971508,
        "lng": -81.5586814,
        "displayName": "Isla Escudo de Veraguas, Bocas del Toro, Panamá",
        "type": "island",
        "importance": 0.30875492868665194
      },
      {
        "lat": 8.9989291,
        "lng": -81.6100613,
        "displayName": "Paisaje Protegido Isla Escudo de Veraguas-Degó, Kusapín, Ngäbe-Buglé, Panamá",
        "type": "protected_area",
        "importance": 0.06667666666666666
      }
    ],
    "candidateCount": 2,
    "timestamp": "2026-02-15T20:30:45.324Z"
  },
  "Shelter Bay, Colon, Panama|Panama": {
    "query": "Shelter Bay, Colon, Panama",
    "country": "Panama",
    "results": [
      {
        "lat": 9.3693031,
        "lng": -79.9508853,
        "displayName": "Shelter Bay Marina, 30, Calle Butner, Fuerte Sherman, Cristóbal, Colón, Panamá",
        "type": "marina",
        "importance": 0.00005678873884179473
      }
    ],
    "candidateCount": 1,
    "timestamp": "2026-02-15T20:30:47.062Z"
  },
  "Linton Bay|Panama": {
    "query": "Linton Bay",
    "country": "Panama",
    "results": [
      {
        "lat": 9.6128111,
        "lng": -79.5789435,
        "displayName": "Linton Bay Marina, Carretera Portobelo - La Guaira, La Guayra, Puerto Lindo, Portobelo, Colón, Panamá",
        "type": "marina",
        "importance": 0.00003750133516437045
      }
    ],
    "candidateCount": 1,
    "timestamp": "2026-02-15T20:30:48.642Z"
  },
  "West Holandes|Panama": {
    "query": "West Holandes",
    "country": "Panama",
    "results": [
      {
        "lat": -15.6057921,
        "lng": -56.0599536,
        "displayName": "Viveiro do Holandês, Jardim Itália, Cuiabá, Região Geográfica Imediata de Cuiabá, Região Metropolitana do Vale do Rio Cuiabá, Região Geográfica Intermediária de Cuiabá, Mato Grosso, Região Centro-Oeste, Brasil",
        "type": "plant_nursery",
        "importance": 0.10673088044556342
      },
      {
        "lat": -16.8911893,
        "lng": -49.2506742,
        "displayName": "Alameda Holandês, Hidrolândia, Região Geográfica Imediata de Goiânia, Região Geográfica Intermediária de Goiânia, Goiás, Região Centro-Oeste, 74976-155, Brasil",
        "type": "residential",
        "importance": 0.05338679102769509
      },
      {
        "lat": -15.7743386,
        "lng": -47.8857745,
        "displayName": "Casa do Holandês, CLN 304/305, SQN 305, Asa Norte, Brasília, Plano Piloto, Região Geográfica Imediata do Distrito Federal, Região Integrada de Desenvolvimento do Distrito Federal e Entorno, Região Geográfica Intermediária do Distrito Federal, Distrito Federal, Região Centro-Oeste, 70737-000, Brasil",
        "type": "marketplace",
        "importance": 0.00007805065995265153
      }
    ],
    "candidateCount": 3,
    "timestamp": "2026-02-15T20:30:51.459Z"
  },
  "East Holandes|Panama": {
    "query": "East Holandes",
    "country": "Panama",
    "results": [],
    "candidateCount": 0,
    "timestamp": "2026-02-15T20:30:55.551Z"
  },
  "Cocos Banderas|Panama": {
    "query": "Cocos Banderas",
    "country": "Panama",
    "results": [
      {
        "lat": 20.745941,
        "lng": -105.2567454,
        "displayName": "Playa Las Cocos, Valle Marlin, Bahía de Banderas, Nayarit, 63737, México",
        "type": "residential",
        "importance": 0.053391660181582326
      },
      {
        "lat": 20.8117698,
        "lng": -105.2468762,
        "displayName": "Privada Los Cocos, Valle de Banderas, Bahía de Banderas, Nayarit, 63731, México",
        "type": "residential",
        "importance": 0.05337333409628439
      },
      {
        "lat": 20.865874,
        "lng": -105.4438051,
        "displayName": "Privada Cocos Sur, Sayulita, Bahía de Banderas, Nayarit, 63132, México",
        "type": "residential",
        "importance": 0.053370834668497714
      },
      {
        "lat": 20.8662024,
        "lng": -105.4432593,
        "displayName": "Calle Los Cocos Norte, Sayulita, Bahía de Banderas, Nayarit, 63132, México",
        "type": "residential",
        "importance": 0.053370834668497714
      },
      {
        "lat": 20.8684835,
        "lng": -105.4444966,
        "displayName": "Calle Cocos, Sayulita, Bahía de Banderas, Nayarit, 63132, México",
        "type": "residential",
        "importance": 0.053370834668497714
      }
    ],
    "candidateCount": 5,
    "timestamp": "2026-02-15T20:30:58.441Z"
  },
  "Chichime|Panama": {
    "query": "Chichime",
    "country": "Panama",
    "results": [
      {
        "lat": 9.5859171,
        "lng": -78.8788288,
        "displayName": "Chichime Cays, Narganá, Guna Yala, Panamá",
        "type": "archipelago",
        "importance": 0.10667666666666664
      }
    ],
    "candidateCount": 1,
    "timestamp": "2026-02-15T20:30:59.856Z"
  },
  "Shelter Bay, Colon, Panama|Mexico": {
    "query": "Shelter Bay, Colon, Panama",
    "country": "Mexico",
    "results": [
      {
        "lat": 9.3693031,
        "lng": -79.9508853,
        "displayName": "Shelter Bay Marina, 30, Calle Butner, Fuerte Sherman, Cristóbal, Colón, Panamá",
        "type": "marina",
        "importance": 0.00005678873884179473
      }
    ],
    "candidateCount": 1,
    "timestamp": "2026-02-15T20:31:03.664Z"
  },
  "Cancun, Mexico|Mexico": {
    "query": "Cancun, Mexico",
    "country": "Mexico",
    "results": [
      {
        "lat": 21.1527467,
        "lng": -86.8425761,
        "displayName": "Cancún, Benito Juárez, Distrito 5, Quintana Roo, México",
        "type": "administrative",
        "importance": 0.5936998660644925
      },
      {
        "lat": 21.0881471,
        "lng": -86.7711514,
        "displayName": "Cancún, Benito Juárez, Distrito 8, Quintana Roo, México",
        "type": "island",
        "importance": 0.17336203326466773
      }
    ],
    "candidateCount": 2,
    "timestamp": "2026-02-15T20:31:05.010Z"
  },
  "Cancun, Mexico|USA": {
    "query": "Cancun, Mexico",
    "country": "USA",
    "results": [
      {
        "lat": 34.7953626,
        "lng": -106.7659924,
        "displayName": "Camino Cancun, Los Lunas, Valencia County, New Mexico, United States",
        "type": "residential",
        "importance": 0.05338707331960018
      },
      {
        "lat": 35.2651747,
        "lng": -106.6974517,
        "displayName": "Cancun Loop Northeast, Via Vista Apartments, Rio Rancho, Sandoval County, New Mexico, 87124, United States",
        "type": "residential",
        "importance": 0.053382190432593235
      },
      {
        "lat": 34.7985931,
        "lng": -106.7632307,
        "displayName": "Corta Cancun, Los Lunas, Valencia County, New Mexico, United States",
        "type": "residential",
        "importance": 0.05335933394369417
      },
      {
        "lat": 32.0285759,
        "lng": -107.7781122,
        "displayName": "Cancun Road Southwest, Luna County, New Mexico, United States",
        "type": "residential",
        "importance": 0.0533433333333333
      }
    ],
    "candidateCount": 4,
    "timestamp": "2026-02-15T20:31:06.576Z"
  },
  "Dry Tortugas|USA": {
    "query": "Dry Tortugas",
    "country": "USA",
    "results": [
      {
        "lat": 24.665151,
        "lng": -82.8553985,
        "displayName": "Dry Tortugas, Monroe County, Florida, United States",
        "type": "islet",
        "importance": 0.1333433333333333
      },
      {
        "lat": 24.6320195,
        "lng": -82.9212422,
        "displayName": "Dry Tortugas, Monroe County, Florida, United States",
        "type": "archipelago",
        "importance": 0.10667666666666664
      },
      {
        "lat": 29.4704259,
        "lng": -98.7341448,
        "displayName": "Dry Tortugas, Harrison Grant, Alamo Ranch, Bexar County, Texas, 78253, United States",
        "type": "residential",
        "importance": 0.053370834668497714
      }
    ],
    "candidateCount": 3,
    "timestamp": "2026-02-15T20:31:07.972Z"
  },
  "Key West|USA": {
    "query": "Key West",
    "country": "USA",
    "results": [
      {
        "lat": 24.5548262,
        "lng": -81.8020722,
        "displayName": "Key West, Monroe County, Florida, United States",
        "type": "administrative",
        "importance": 0.56225101041818
      },
      {
        "lat": 24.5645887,
        "lng": -81.7650512,
        "displayName": "Key West, Monroe County, Florida, United States",
        "type": "island",
        "importance": 0.3567097398182398
      },
      {
        "lat": 42.4488938,
        "lng": -90.6840171,
        "displayName": "Key West, Dubuque County, Iowa, 52003, United States",
        "type": "hamlet",
        "importance": 0.3124113249238066
      },
      {
        "lat": 38.0550021,
        "lng": -78.4389876,
        "displayName": "Key West, Albemarle County, Virginia, 22911, United States",
        "type": "neighbourhood",
        "importance": 0.3048787062747997
      }
    ],
    "candidateCount": 4,
    "timestamp": "2026-02-15T20:31:09.298Z"
  },
  "Fernandina Beach|USA": {
    "query": "Fernandina Beach",
    "country": "USA",
    "results": [
      {
        "lat": 30.6712285,
        "lng": -81.4630025,
        "displayName": "Fernandina Beach, Nassau County, Florida, 32035, United States",
        "type": "administrative",
        "importance": 0.4708656413927964
      }
    ],
    "candidateCount": 1,
    "timestamp": "2026-02-15T20:31:10.708Z"
  },
  "Bohicket Marina|USA": {
    "query": "Bohicket Marina",
    "country": "USA",
    "results": [
      {
        "lat": 32.6056365,
        "lng": -80.1572253,
        "displayName": "Bohicket Marina, Andell Bluff Boulevard, Seabrook Island, Charleston County, South Carolina, United States",
        "type": "marina",
        "importance": 0.0000419371328297401
      }
    ],
    "candidateCount": 1,
    "timestamp": "2026-02-15T20:31:12.141Z"
  },
  "Norfolk|USA": {
    "query": "Norfolk",
    "country": "USA",
    "results": [
      {
        "lat": 36.8493695,
        "lng": -76.2899539,
        "displayName": "Norfolk, Virginia, United States",
        "type": "administrative",
        "importance": 0.6525396172289414
      },
      {
        "lat": 42.1538607,
        "lng": -71.1828015,
        "displayName": "Norfolk County, Massachusetts, United States",
        "type": "administrative",
        "importance": 0.5448946432915528
      },
      {
        "lat": 42.0283379,
        "lng": -97.4169964,
        "displayName": "Norfolk, Madison County, Nebraska, United States",
        "type": "administrative",
        "importance": 0.4916826333919277
      },
      {
        "lat": 41.9899936,
        "lng": -73.1991114,
        "displayName": "Norfolk, Northwest Hills Planning Region, Connecticut, 06058, United States",
        "type": "administrative",
        "importance": 0.44592762116740453
      },
      {
        "lat": 44.8015854,
        "lng": -74.9909855,
        "displayName": "Town of Norfolk, Saint Lawrence County, New York, United States",
        "type": "administrative",
        "importance": 0.4297187694332904
      }
    ],
    "candidateCount": 5,
    "timestamp": "2026-02-15T20:31:13.607Z"
  },
  "Staten Island, NY|USA": {
    "query": "Staten Island, NY",
    "country": "USA",
    "results": [
      {
        "lat": 40.5834557,
        "lng": -74.1496048,
        "displayName": "Staten Island, Richmond County, New York, United States",
        "type": "administrative",
        "importance": 0.6295649845754
      },
      {
        "lat": 40.5834557,
        "lng": -74.1496048,
        "displayName": "Richmond County, New York, United States",
        "type": "administrative",
        "importance": 0.6295649845754
      }
    ],
    "candidateCount": 2,
    "timestamp": "2026-02-15T20:31:15.179Z"
  },
  "Port Washington, Long Island|USA": {
    "query": "Port Washington, Long Island",
    "country": "USA",
    "results": [
      {
        "lat": 40.830519,
        "lng": -73.701674,
        "displayName": "Long Island Traditions, 382, Main Street, Port Harbor Condominiums, Port Washington, Town of North Hempstead, Nassau County, New York, 11050, United States",
        "type": "arts_centre",
        "importance": 0.00005247501335159865
      }
    ],
    "candidateCount": 1,
    "timestamp": "2026-02-15T20:31:16.658Z"
  },
  "Port Jefferson|USA": {
    "query": "Port Jefferson",
    "country": "USA",
    "results": [
      {
        "lat": 40.9465118,
        "lng": -73.0691257,
        "displayName": "Village of Port Jefferson, Town of Brookhaven, Suffolk County, New York, 11777, United States",
        "type": "administrative",
        "importance": 0.4948315202380193
      },
      {
        "lat": 40.328661,
        "lng": -84.0943865,
        "displayName": "Port Jefferson, Shelby County, Ohio, 45360, United States",
        "type": "administrative",
        "importance": 0.3260874163190326
      }
    ],
    "candidateCount": 2,
    "timestamp": "2026-02-15T20:31:18.094Z"
  },
  "Sag Harbor|USA": {
    "query": "Sag Harbor",
    "country": "USA",
    "results": [
      {
        "lat": 40.9978727,
        "lng": -72.2922292,
        "displayName": "Village of Sag Harbor, Town of East Hampton, Suffolk County, New York, United States",
        "type": "administrative",
        "importance": 0.48909162910453324
      }
    ],
    "candidateCount": 1,
    "timestamp": "2026-02-15T20:31:19.543Z"
  },
  "Mystic|USA": {
    "query": "Mystic",
    "country": "USA",
    "results": [
      {
        "lat": 40.7776709,
        "lng": -92.9453445,
        "displayName": "Mystic, Appanoose County, Iowa, United States",
        "type": "administrative",
        "importance": 0.4618297914611654
      },
      {
        "lat": 41.355993,
        "lng": -71.9573302,
        "displayName": "Mystic, Stonington, Southeastern Connecticut Planning Region, Connecticut, 06388, United States",
        "type": "census",
        "importance": 0.4288898119748514
      },
      {
        "lat": 41.3542366,
        "lng": -71.9664041,
        "displayName": "Mystic, Stonington, Southeastern Connecticut Planning Region, Connecticut, 06388, United States",
        "type": "town",
        "importance": 0.4288898119748514
      },
      {
        "lat": 44.076929,
        "lng": -103.641583,
        "displayName": "Mystic, Pennington County, South Dakota, United States",
        "type": "hamlet",
        "importance": 0.34072438724576065
      },
      {
        "lat": 37.8970065,
        "lng": -86.442755,
        "displayName": "Mystic, Breckinridge County, Kentucky, 40170, United States",
        "type": "hamlet",
        "importance": 0.28948114726807017
      }
    ],
    "candidateCount": 5,
    "timestamp": "2026-02-15T20:31:20.996Z"
  },
  "Block Island|USA": {
    "query": "Block Island",
    "country": "USA",
    "results": [
      {
        "lat": 41.1895772,
        "lng": -71.5679001,
        "displayName": "Block Island, New Shoreham, South County, Rhode Island, 02807, United States",
        "type": "island",
        "importance": 0.45122999892002374
      },
      {
        "lat": 41.1722089,
        "lng": -71.5573011,
        "displayName": "New Shoreham, South County, Rhode Island, 02807, United States",
        "type": "administrative",
        "importance": 0.4479910460471933
      },
      {
        "lat": 41.1643715,
        "lng": -71.5876466,
        "displayName": "Block Island, New Shoreham, South County, Rhode Island, 02807, United States",
        "type": "island",
        "importance": 0.17338526512550545
      },
      {
        "lat": 41.5133835,
        "lng": -85.1344148,
        "displayName": "Block Island, DeKalb County, Indiana, 46747, United States",
        "type": "island",
        "importance": 0.17334333333333332
      },
      {
        "lat": 60.524748,
        "lng": -147.6105778,
        "displayName": "Block Island, Unorganized Borough, Alaska, United States",
        "type": "islet",
        "importance": 0.1333433333333333
      }
    ],
    "candidateCount": 5,
    "timestamp": "2026-02-15T20:31:22.414Z"
  },
  "Newport, RI|USA": {
    "query": "Newport, RI",
    "country": "USA",
    "results": [
      {
        "lat": 41.4899827,
        "lng": -71.3137707,
        "displayName": "Newport, Newport County, Rhode Island, 02840, United States",
        "type": "administrative",
        "importance": 0.6116907451143354
      }
    ],
    "candidateCount": 1,
    "timestamp": "2026-02-15T20:31:23.906Z"
  },
  "Cuttyhunk Island, MA|USA": {
    "query": "Cuttyhunk Island, MA",
    "country": "USA",
    "results": [
      {
        "lat": 41.4206405,
        "lng": -70.9335521,
        "displayName": "Cuttyhunk Island, Gosnold, Dukes County, Massachusetts, 02713, United States",
        "type": "island",
        "importance": 0.35886706313982136
      }
    ],
    "candidateCount": 1,
    "timestamp": "2026-02-15T20:31:25.314Z"
  },
  "Martha's Vinyard, MA|USA": {
    "query": "Martha's Vinyard, MA",
    "country": "USA",
    "results": [
      {
        "lat": 42.9730158,
        "lng": -88.0073284,
        "displayName": "Martha's Vinyard, 3928, South 76th Street, Red Oak Heights, Milwaukee, Milwaukee County, Wisconsin, 53220, United States",
        "type": "alcohol",
        "importance": 0.0000675265125505
      }
    ],
    "candidateCount": 1,
    "timestamp": "2026-02-15T20:31:26.753Z"
  },
  "Onset Bay, MA|USA": {
    "query": "Onset Bay, MA",
    "country": "USA",
    "results": [
      {
        "lat": 41.735105,
        "lng": -70.6494768,
        "displayName": "Onset Bay, Onset, Wareham, Plymouth County, Massachusetts, 02538, United States",
        "type": "bay",
        "importance": 0.10671715648126953
      }
    ],
    "candidateCount": 1,
    "timestamp": "2026-02-15T20:31:28.182Z"
  },
  "Province Town, MA|USA": {
    "query": "Province Town, MA",
    "country": "USA",
    "results": [
      {
        "lat": 42.0525777,
        "lng": -70.1852168,
        "displayName": "Provincetown Tourism Office, 330, Commercial Street, Town Center, Provincetown, Barnstable County, Massachusetts, 02657, United States",
        "type": "information",
        "importance": 0.00005525978484774575
      }
    ],
    "candidateCount": 1,
    "timestamp": "2026-02-15T20:31:30.127Z"
  },
  "Wentworth by the Sea, NH|USA": {
    "query": "Wentworth by the Sea, NH",
    "country": "USA",
    "results": [
      {
        "lat": 43.0599351,
        "lng": -70.7261281,
        "displayName": "Wentworth By The Sea, 588, Wentworth Road, New Castle, Rockingham County, New Hampshire, 03854, United States",
        "type": "hotel",
        "importance": 0.19938740066310082
      }
    ],
    "candidateCount": 1,
    "timestamp": "2026-02-15T20:31:31.657Z"
  },
  "Potts Harbor, ME|USA": {
    "query": "Potts Harbor, ME",
    "country": "USA",
    "results": [
      {
        "lat": 43.740083,
        "lng": -70.0322696,
        "displayName": "Potts Harbor, Harpswell, Cumberland County, Maine, 04079, United States",
        "type": "bay",
        "importance": 0.10671484473945218
      }
    ],
    "candidateCount": 1,
    "timestamp": "2026-02-15T20:31:33.216Z"
  },
  "Snow Island, ME|USA": {
    "query": "Snow Island, ME",
    "country": "USA",
    "results": [
      {
        "lat": 45.4460615,
        "lng": -68.434421,
        "displayName": "Snow Island, Chester, Penobscot County, Maine, 04457, United States",
        "type": "island",
        "importance": 0.17338077744716562
      },
      {
        "lat": 43.815353,
        "lng": -69.9099232,
        "displayName": "Snow Island, Dyer Cove, Harpswell, Cumberland County, Maine, 04079, United States",
        "type": "islet",
        "importance": 0.13338151140611884
      }
    ],
    "candidateCount": 2,
    "timestamp": "2026-02-15T20:31:34.845Z"
  },
  "Swans Island, ME|USA": {
    "query": "Swans Island, ME",
    "country": "USA",
    "results": [
      {
        "lat": 44.1597299,
        "lng": -68.4205633,
        "displayName": "Swans Island, Swan's Island, Hancock County, Maine, 04685, United States",
        "type": "island",
        "importance": 0.17337874952315555
      }
    ],
    "candidateCount": 1,
    "timestamp": "2026-02-15T20:31:36.109Z"
  },
  "Bar Harbor, ME|USA": {
    "query": "Bar Harbor, ME",
    "country": "USA",
    "results": [
      {
        "lat": 44.3876378,
        "lng": -68.2043361,
        "displayName": "Bar Harbor, Hancock County, Maine, United States",
        "type": "administrative",
        "importance": 0.46498457158692574
      },
      {
        "lat": 44.3864565,
        "lng": -68.2118701,
        "displayName": "Bar Harbor, Hancock County, Maine, United States",
        "type": "census",
        "importance": 0.35812148255445847
      }
    ],
    "candidateCount": 2,
    "timestamp": "2026-02-15T20:31:37.539Z"
  },
  "Somes Sound, ME|USA": {
    "query": "Somes Sound, ME",
    "country": "USA",
    "results": [
      {
        "lat": 44.3331352,
        "lng": -68.3102941,
        "displayName": "Somes Sound, Mount Desert, Hancock County, Maine, 06466, United States",
        "type": "bay",
        "importance": 0.2254967738420746
      }
    ],
    "candidateCount": 1,
    "timestamp": "2026-02-15T20:31:38.972Z"
  },
  "Lond Island, ME|USA": {
    "query": "Lond Island, ME",
    "country": "USA",
    "results": [],
    "candidateCount": 0,
    "timestamp": "2026-02-15T20:31:44.543Z"
  },
  "Lond Island, ME|Canada": {
    "query": "Lond Island, ME",
    "country": "Canada",
    "results": [],
    "candidateCount": 0,
    "timestamp": "2026-02-15T20:31:49.676Z"
  },
  "Halifax, NS|Canada": {
    "query": "Halifax, NS",
    "country": "Canada",
    "results": [
      {
        "lat": 44.648618,
        "lng": -63.5859487,
        "displayName": "Halifax, Halifax Regional Municipality, Halifax County, Nova Scotia, Canada",
        "type": "administrative",
        "importance": 0.6446438149607956
      }
    ],
    "candidateCount": 1,
    "timestamp": "2026-02-15T20:31:50.980Z"
  },
  "Halifax, NS|Portugal": {
    "query": "Halifax, NS",
    "country": "Portugal",
    "results": [
      {
        "lat": 44.648618,
        "lng": -63.5859487,
        "displayName": "Halifax, Halifax Regional Municipality, Halifax County, Nova Scotia, Canada",
        "type": "administrative",
        "importance": 0.6446438149607956
      }
    ],
    "candidateCount": 1,
    "timestamp": "2026-02-15T20:31:54.416Z"
  },
  "Horta, Azores|Portugal": {
    "query": "Horta, Azores",
    "country": "Portugal",
    "results": [
      {
        "lat": 38.5368032,
        "lng": -28.630109,
        "displayName": "Horta, Açores, Portugal",
        "type": "city",
        "importance": 0.5012003947230182
      },
      {
        "lat": 38.5795831,
        "lng": -28.7096295,
        "displayName": "Horta, Açores, Portugal",
        "type": "administrative",
        "importance": 0.4962267986455909
      },
      {
        "lat": 38.5383516,
        "lng": -28.6356771,
        "displayName": "Horta (Matriz), Horta, Açores, Portugal",
        "type": "administrative",
        "importance": 0.32314590312055647
      },
      {
        "lat": 38.5284778,
        "lng": -28.6389203,
        "displayName": "Horta (Angústias), Horta, Açores, Portugal",
        "type": "administrative",
        "importance": 0.3205132109543609
      },
      {
        "lat": 38.5485651,
        "lng": -28.6226578,
        "displayName": "Horta (Conceição), Horta, Açores, Portugal",
        "type": "administrative",
        "importance": 0.3144112371844263
      }
    ],
    "candidateCount": 5,
    "timestamp": "2026-02-15T20:31:55.860Z"
  },
  "Sao Jorge, Azores|Portugal": {
    "query": "Sao Jorge, Azores",
    "country": "Portugal",
    "results": [
      {
        "lat": 38.6445306,
        "lng": -28.052794,
        "displayName": "Ilha de São Jorge, Açores, Portugal",
        "type": "island",
        "importance": 0.4865831977081682
      },